{
  "$schema": "1.0.0",
  "lastUpdated": "2026-02-15",
  "sources": [
    "SimpleLocalize",
    "CLDR",
    "mledoze/countries",
    "Manual Overrides"
  ],
  "basics": {
    "name": "South Korea",
    "officialName": "Republic of Korea",
    "nativeName": "ëŒ€í•œë¯¼êµ­",
    "officialNativeName": "ëŒ€í•œë¯¼êµ­",
    "capital": "Seoul",
    "capitalCoordinates": [
      37.566,
      126.9784
    ],
    "coordinates": [
      37,
      127.5
    ],
    "continent": "Asia",
    "region": "Eastern Asia",
    "subregion": "Eastern Asia",
    "population": 0,
    "area": 100210,
    "flagEmoji": "ğŸ‡°ğŸ‡·",
    "tld": [
      ".kr",
      ".í•œêµ­"
    ],
    "landlocked": false,
    "borders": [
      "KP"
    ],
    "languages": [
      {
        "code": "ko",
        "iso639_2": "kor",
        "iso639_3": "kor",
        "name": "Korean",
        "nativeName": "í•œêµ­ì–´",
        "official": true,
        "direction": "ltr",
        "countries": []
      }
    ],
    "demonym": "South Korean"
  },
  "codes": {
    "iso3166Alpha2": "KR",
    "iso3166Alpha3": "KOR",
    "iso3166Numeric": "410",
    "bcp47": [
      "ko-KR"
    ],
    "internetTld": "kr",
    "ioc": "KOR",
    "fifa": "KOR",
    "vehicleCode": "ROK",
    "fips10": "KS",
    "unLocode": "KR",
    "stanag1059": "KOR",
    "itu": "KOR",
    "uic": "61 ROK",
    "maritime": "440, 441",
    "mmc": 450
  },
  "currency": {
    "code": "KRW",
    "numericCode": 410,
    "name": "South Korean Won",
    "nativeName": "South Korean won",
    "symbol": "â‚©",
    "narrowSymbol": "â‚©",
    "symbolPosition": "before",
    "decimalSeparator": ".",
    "thousandsSeparator": ",",
    "decimalDigits": 2,
    "subunitValue": 100,
    "subunitName": "Chon",
    "pattern": "Â¤#,##0.00",
    "example": "â‚©123,457",
    "accountingExample": "(â‚©1,235)"
  },
  "dateTime": {
    "firstDayOfWeek": 1,
    "clockFormat": "24h",
    "dateFormats": {
      "full": "yë…„ MMMM dì¼ EEEE",
      "long": "yë…„ MMMM dì¼",
      "medium": "y. M. d.",
      "short": "yy. M. d."
    },
    "timeFormats": {
      "full": "a hì‹œ më¶„ sì´ˆ zzzz",
      "long": "a hì‹œ më¶„ sì´ˆ z",
      "medium": "a h:mm:ss",
      "short": "a h:mm"
    },
    "datePatterns": {
      "full": "yMMMMEEEEd",
      "long": "yMMMMd",
      "medium": "yMd",
      "short": "yyMd"
    },
    "timePatterns": {
      "full": "ahmszzzz",
      "long": "ahmsz",
      "medium": "ahmmss",
      "short": "ahmm"
    },
    "monthNames": {
      "wide": [
        "1ì›”",
        "2ì›”",
        "3ì›”",
        "4ì›”",
        "5ì›”",
        "6ì›”",
        "7ì›”",
        "8ì›”",
        "9ì›”",
        "10ì›”",
        "11ì›”",
        "12ì›”"
      ],
      "abbreviated": [
        "1ì›”",
        "2ì›”",
        "3ì›”",
        "4ì›”",
        "5ì›”",
        "6ì›”",
        "7ì›”",
        "8ì›”",
        "9ì›”",
        "10ì›”",
        "11ì›”",
        "12ì›”"
      ],
      "narrow": [
        "1ì›”",
        "2ì›”",
        "3ì›”",
        "4ì›”",
        "5ì›”",
        "6ì›”",
        "7ì›”",
        "8ì›”",
        "9ì›”",
        "10ì›”",
        "11ì›”",
        "12ì›”"
      ]
    },
    "dayNames": {
      "wide": [
        "ì¼ìš”ì¼",
        "ì›”ìš”ì¼",
        "í™”ìš”ì¼",
        "ìˆ˜ìš”ì¼",
        "ëª©ìš”ì¼",
        "ê¸ˆìš”ì¼",
        "í† ìš”ì¼"
      ],
      "abbreviated": [
        "ì¼",
        "ì›”",
        "í™”",
        "ìˆ˜",
        "ëª©",
        "ê¸ˆ",
        "í† "
      ],
      "narrow": [
        "ì¼",
        "ì›”",
        "í™”",
        "ìˆ˜",
        "ëª©",
        "ê¸ˆ",
        "í† "
      ]
    },
    "amPmMarkers": [
      "AM",
      "PM"
    ],
    "timezones": [
      "UTC+09:00"
    ],
    "primaryTimezone": "UTC+09:00",
    "utcOffset": "+00:00"
  },
  "numberFormat": {
    "decimalSeparator": ".",
    "thousandsSeparator": ",",
    "digitGrouping": "3",
    "pattern": "#,##0.###",
    "percentExample": "25.5%",
    "example": "1,234,567.89",
    "numberingSystem": "latn"
  },
  "phone": {
    "callingCode": "+82",
    "trunkPrefix": "0",
    "internationalPrefix": "00",
    "exampleFormat": "+82 555 123 4567",
    "subscriberNumberLengths": []
  },
  "addressFormat": {
    "format": "%N%n%A%n%Z %C",
    "lineOrder": [
      "name",
      "address",
      "city"
    ],
    "postalCodeFormat": "SEOUL ###-###",
    "postalCodeRegex": "^(?:SEOUL)*(\\d{6})$",
    "postalCodeExample": "",
    "administrativeDivisionName": "Province",
    "administrativeDivisionType": "Province"
  },
  "locale": {
    "writingDirection": "ltr",
    "measurementSystem": "metric",
    "temperatureScale": "celsius",
    "paperSize": "A4",
    "drivingSide": "right",
    "weekNumbering": "ISO"
  },
  "airports": [
    {
      "countryCode": "KR",
      "region": "Busan-gwangyeoksi",
      "iata": "PUS",
      "icao": "RKPK",
      "name": "Gimhae International Airport",
      "latitude": 35.1795,
      "longitude": 128.938
    },
    {
      "countryCode": "KR",
      "region": "Chungcheongbuk-do",
      "iata": "CJJ",
      "icao": "RKTU",
      "name": "Cheongju International Airport",
      "latitude": 36.717,
      "longitude": 127.499
    },
    {
      "countryCode": "KR",
      "region": "Chungcheongbuk-do",
      "iata": "JWO",
      "icao": "RKTI",
      "name": "Jungwon Air Base",
      "latitude": 37.03,
      "longitude": 127.885
    },
    {
      "countryCode": "KR",
      "region": "Chungcheongnam-do",
      "iata": "HMY",
      "icao": "RKTP",
      "name": "Seosan Air Base",
      "latitude": 36.704,
      "longitude": 126.486
    },
    {
      "countryCode": "KR",
      "region": "Gangwon-do",
      "iata": "KAG",
      "icao": "RKNN",
      "name": "Gangneung Air Base",
      "latitude": 37.7536,
      "longitude": 128.944
    },
    {
      "countryCode": "KR",
      "region": "Gangwon-do",
      "iata": "WJU",
      "icao": "RKNW",
      "name": "Wonju Airport",
      "latitude": 37.4412,
      "longitude": 127.964
    },
    {
      "countryCode": "KR",
      "region": "Gangwon-do",
      "iata": "YNY",
      "icao": "RKNY",
      "name": "Yangyang International Airport",
      "latitude": 38.0613,
      "longitude": 128.669
    },
    {
      "countryCode": "KR",
      "region": "Gwangju-gwangyeoksi",
      "iata": "CHN",
      "icao": "RKJU",
      "name": "Jeonju Airport",
      "latitude": 35.8781,
      "longitude": 127.119
    },
    {
      "countryCode": "KR",
      "region": "Gwangju-gwangyeoksi",
      "iata": "KUV",
      "icao": "RKJK",
      "name": "Gunsan Airport",
      "latitude": 35.9038,
      "longitude": 126.616
    },
    {
      "countryCode": "KR",
      "region": "Gwangju-gwangyeoksi",
      "iata": "KWJ",
      "icao": "RKJJ",
      "name": "Gwangju Airport",
      "latitude": 35.1232,
      "longitude": 126.805
    },
    {
      "countryCode": "KR",
      "region": "Gwangju-gwangyeoksi",
      "iata": "MWX",
      "icao": "RKJB",
      "name": "Muan International Airport",
      "latitude": 34.9914,
      "longitude": 126.383
    },
    {
      "countryCode": "KR",
      "region": "Gwangju-gwangyeoksi",
      "iata": "RSU",
      "icao": "RKJY",
      "name": "Yeosu/Suncheon Airport",
      "latitude": 34.8423,
      "longitude": 127.617
    },
    {
      "countryCode": "KR",
      "region": "Gyeonggi-do",
      "iata": "GMP",
      "icao": "RKSS",
      "name": "Seoul Gimpo International Airport",
      "latitude": 37.5655,
      "longitude": 126.8011
    },
    {
      "countryCode": "KR",
      "region": "Gyeonggi-do",
      "iata": "ICN",
      "icao": "RKSI",
      "name": "Incheon International Airport",
      "latitude": 37.4633,
      "longitude": 126.44
    },
    {
      "countryCode": "KR",
      "region": "Gyeonggi-do",
      "iata": "OSN",
      "icao": "RKSO",
      "name": "Osan Air Base",
      "latitude": 37.0906,
      "longitude": 127.03
    },
    {
      "countryCode": "KR",
      "region": "Gyeonggi-do",
      "iata": "SWU",
      "icao": "RKSW",
      "name": "Suwon Air Base",
      "latitude": 37.2394,
      "longitude": 127.007
    },
    {
      "countryCode": "KR",
      "region": "Gyeongsangnam-do",
      "iata": "CHF",
      "icao": "RKPE",
      "name": "Jinhae Airport",
      "latitude": 35.1402,
      "longitude": 128.696
    },
    {
      "countryCode": "KR",
      "region": "Gyeongsangnam-do",
      "iata": "HIN",
      "icao": "RKPS",
      "name": "Sacheon Airport",
      "latitude": 35.0886,
      "longitude": 128.072
    },
    {
      "countryCode": "KR",
      "region": "Gyeongsangnam-do",
      "iata": "KPO",
      "icao": "RKTH",
      "name": "Pohang Airport",
      "latitude": 35.988,
      "longitude": 129.42
    },
    {
      "countryCode": "KR",
      "region": "Gyeongsangnam-do",
      "iata": "TAE",
      "icao": "RKTN",
      "name": "Daegu International Airport",
      "latitude": 35.8969,
      "longitude": 128.655
    },
    {
      "countryCode": "KR",
      "region": "Gyeongsangnam-do",
      "iata": "UJN",
      "icao": "RKTL",
      "name": "Uljin Airport",
      "latitude": 36.7771,
      "longitude": 129.462
    },
    {
      "countryCode": "KR",
      "region": "Gyeongsangnam-do",
      "iata": "USN",
      "icao": "RKPU",
      "name": "Ulsan Airport",
      "latitude": 35.5935,
      "longitude": 129.352
    },
    {
      "countryCode": "KR",
      "region": "Gyeongsangnam-do",
      "iata": "YEC",
      "icao": "RKTY",
      "name": "Yecheon Air Base",
      "latitude": 36.6304,
      "longitude": 128.35
    },
    {
      "countryCode": "KR",
      "region": "Jeju-teukbyeoljachido",
      "iata": "CJU",
      "icao": "RKPC",
      "name": "Jeju International Airport",
      "latitude": 33.5113,
      "longitude": 126.493
    },
    {
      "countryCode": "KR",
      "region": "Jeju-teukbyeoljachido",
      "iata": "JDG",
      "icao": "RKPD",
      "name": "Jeongseok Airport",
      "latitude": 33.3996,
      "longitude": 126.712
    }
  ]
}