{
  "$schema": "1.0.0",
  "lastUpdated": "2026-02-15",
  "sources": [
    "SimpleLocalize",
    "CLDR",
    "mledoze/countries",
    "Manual Overrides"
  ],
  "basics": {
    "name": "Nepal",
    "officialName": "Federal Democratic Republic of Nepal",
    "nativeName": "‡§®‡•á‡§™‡§æ‡§≤",
    "officialNativeName": "‡§®‡•á‡§™‡§æ‡§≤ ‡§∏‡§Ç‡§ò‡•Ä‡§Ø ‡§≤‡•ã‡§ï‡§§‡§æ‡§®‡•ç‡§§‡•ç‡§∞‡§ø‡§ï ‡§ó‡§£‡§§‡§®‡•ç‡§§‡•ç‡§∞",
    "capital": "Kathmandu",
    "capitalCoordinates": [
      27.70169,
      85.3206
    ],
    "coordinates": [
      28,
      84
    ],
    "continent": "Asia",
    "region": "Southern Asia",
    "subregion": "Southern Asia",
    "population": 0,
    "area": 147181,
    "flagEmoji": "üá≥üáµ",
    "tld": [
      ".np"
    ],
    "landlocked": true,
    "borders": [
      "CN",
      "IN"
    ],
    "languages": [
      {
        "code": "ne",
        "iso639_2": "nep",
        "iso639_3": "nep",
        "name": "Nepali",
        "nativeName": "‡§®‡•á‡§™‡§æ‡§≤‡•Ä",
        "official": true,
        "direction": "ltr",
        "countries": []
      }
    ],
    "demonym": "Nepalese"
  },
  "codes": {
    "iso3166Alpha2": "NP",
    "iso3166Alpha3": "NPL",
    "iso3166Numeric": "524",
    "bcp47": [
      "ne-NP"
    ],
    "internetTld": "np",
    "ioc": "NEP",
    "fifa": "NEP",
    "vehicleCode": "NEP",
    "fips10": "NP",
    "unLocode": "NP",
    "stanag1059": "NPL",
    "itu": "NPL",
    "uic": "",
    "maritime": 459,
    "mmc": 429
  },
  "currency": {
    "code": "NPR",
    "numericCode": 524,
    "name": "Nepalese Rupee",
    "nativeName": "Nepalese rupee",
    "symbol": "‚Ç®",
    "narrowSymbol": "‚Ç®",
    "symbolPosition": "before",
    "decimalSeparator": ".",
    "thousandsSeparator": ",",
    "decimalDigits": 2,
    "subunitValue": 2,
    "subunitName": "Mohur",
    "pattern": "¬§¬†#,##,##0.00",
    "example": "‡§®‡•á‡§∞‡•Ç¬†‡•ß,‡•®‡•©,‡•™‡•´‡•¨.‡•≠‡•Ø",
    "accountingExample": "-‡§®‡•á‡§∞‡•Ç¬†‡•ß,‡•®‡•©‡•™.‡•´‡•¨"
  },
  "dateTime": {
    "firstDayOfWeek": 1,
    "clockFormat": "24h",
    "dateFormats": {
      "full": "y MMMM d, EEEE",
      "long": "y MMMM d",
      "medium": "y MMM d",
      "short": "yy/M/d"
    },
    "timeFormats": {
      "full": "HH:mm:ss zzzz",
      "long": "HH:mm:ss z",
      "medium": "HH:mm:ss",
      "short": "HH:mm"
    },
    "datePatterns": {
      "full": "yMMMMEEEEd",
      "long": "yMMMMd",
      "medium": "yMMMd",
      "short": "yyMd"
    },
    "timePatterns": {
      "full": "HHmmsszzzz",
      "long": "HHmmssz",
      "medium": "HHmmss",
      "short": "HHmm"
    },
    "monthNames": {
      "wide": [
        "‡§ú‡§®‡§µ‡§∞‡•Ä",
        "‡§´‡•á‡§¨‡•ç‡§∞‡•Å‡§Ö‡§∞‡•Ä",
        "‡§Æ‡§æ‡§∞‡•ç‡§ö",
        "‡§Ö‡§™‡•ç‡§∞‡§ø‡§≤",
        "‡§Æ‡•á",
        "‡§ú‡•Å‡§®",
        "‡§ú‡•Å‡§≤‡§æ‡§à",
        "‡§Ö‡§ó‡§∏‡•ç‡§ü",
        "‡§∏‡•á‡§™‡•ç‡§ü‡•á‡§Æ‡•ç‡§¨‡§∞",
        "‡§Ö‡§ï‡•ç‡§ü‡•ã‡§¨‡§∞",
        "‡§®‡•ã‡§≠‡•á‡§Æ‡•ç‡§¨‡§∞",
        "‡§°‡§ø‡§∏‡•á‡§Æ‡•ç‡§¨‡§∞"
      ],
      "abbreviated": [
        "‡§ú‡§®‡§µ‡§∞‡•Ä",
        "‡§´‡•á‡§¨‡•ç‡§∞‡•Å‡§Ö‡§∞‡•Ä",
        "‡§Æ‡§æ‡§∞‡•ç‡§ö",
        "‡§Ö‡§™‡•ç‡§∞‡§ø‡§≤",
        "‡§Æ‡•á",
        "‡§ú‡•Å‡§®",
        "‡§ú‡•Å‡§≤‡§æ‡§à",
        "‡§Ö‡§ó‡§∏‡•ç‡§ü",
        "‡§∏‡•á‡§™‡•ç‡§ü‡•á‡§Æ‡•ç‡§¨‡§∞",
        "‡§Ö‡§ï‡•ç‡§ü‡•ã‡§¨‡§∞",
        "‡§®‡•ã‡§≠‡•á‡§Æ‡•ç‡§¨‡§∞",
        "‡§°‡§ø‡§∏‡•á‡§Æ‡•ç‡§¨‡§∞"
      ],
      "narrow": [
        "‡§ú‡§®",
        "‡§´‡•á‡§¨",
        "‡§Æ‡§æ‡§∞‡•ç‡§ö",
        "‡§Ö‡§™‡•ç‡§∞",
        "‡§Æ‡•á",
        "‡§ú‡•Å‡§®",
        "‡§ú‡•Å‡§≤",
        "‡§Ö‡§ó",
        "‡§∏‡•á‡§™",
        "‡§Ö‡§ï‡•ç‡§ü‡•ã",
        "‡§®‡•ã‡§≠‡•á",
        "‡§°‡§ø‡§∏‡•á"
      ]
    },
    "dayNames": {
      "wide": [
        "‡§Ü‡§á‡§§‡§¨‡§æ‡§∞",
        "‡§∏‡•ã‡§Æ‡§¨‡§æ‡§∞",
        "‡§Æ‡§ô‡•ç‡§ó‡§≤‡§¨‡§æ‡§∞",
        "‡§¨‡•Å‡§ß‡§¨‡§æ‡§∞",
        "‡§¨‡§ø‡§π‡§ø‡§¨‡§æ‡§∞",
        "‡§∂‡•Å‡§ï‡•ç‡§∞‡§¨‡§æ‡§∞",
        "‡§∂‡§®‡§ø‡§¨‡§æ‡§∞"
      ],
      "abbreviated": [
        "‡§Ü‡§á‡§§",
        "‡§∏‡•ã‡§Æ",
        "‡§Æ‡§ô‡•ç‡§ó‡§≤",
        "‡§¨‡•Å‡§ß",
        "‡§¨‡§ø‡§π‡§ø",
        "‡§∂‡•Å‡§ï‡•ç‡§∞",
        "‡§∂‡§®‡§ø"
      ],
      "narrow": [
        "‡§Ü",
        "‡§∏‡•ã",
        "‡§Æ",
        "‡§¨‡•Å",
        "‡§¨‡§ø",
        "‡§∂‡•Å",
        "‡§∂"
      ]
    },
    "amPmMarkers": [
      "AM",
      "PM"
    ],
    "timezones": [
      "UTC+05:45"
    ],
    "primaryTimezone": "UTC+05:45",
    "utcOffset": "+00:00"
  },
  "numberFormat": {
    "decimalSeparator": ".",
    "thousandsSeparator": ",",
    "digitGrouping": "3",
    "pattern": "#,##,##0.###",
    "percentExample": "‡•®‡•´.‡•´%",
    "example": "‡•ß‡•®,‡•©‡•™,‡•´‡•¨‡•≠.‡•Æ‡•Ø",
    "numberingSystem": "deva"
  },
  "phone": {
    "callingCode": "+977",
    "trunkPrefix": "0",
    "internationalPrefix": "00",
    "exampleFormat": "+977 555 123 4567",
    "subscriberNumberLengths": []
  },
  "addressFormat": {
    "format": "%N%n%A%n%Z %C",
    "lineOrder": [
      "name",
      "address",
      "city"
    ],
    "postalCodeFormat": "#####",
    "postalCodeRegex": "^(\\d{5})$",
    "postalCodeExample": "",
    "administrativeDivisionName": "Province",
    "administrativeDivisionType": "Province"
  },
  "locale": {
    "writingDirection": "ltr",
    "measurementSystem": "metric",
    "temperatureScale": "celsius",
    "paperSize": "A4",
    "drivingSide": "right",
    "weekNumbering": "ISO"
  },
  "airports": [
    {
      "countryCode": "NP",
      "region": "Bagmati",
      "iata": "KTM",
      "icao": "VNKT",
      "name": "Tribhuvan International Airport",
      "latitude": 27.6966,
      "longitude": 85.3591
    },
    {
      "countryCode": "NP",
      "region": "Bagmati",
      "iata": "LTG",
      "icao": "VNLT",
      "name": "Langtang Airport",
      "latitude": 28.2,
      "longitude": 85.583
    },
    {
      "countryCode": "NP",
      "region": "Bheri",
      "iata": "BJU",
      "icao": "VNBR",
      "name": "Bajura Airport",
      "latitude": 29.502,
      "longitude": 81.669
    },
    {
      "countryCode": "NP",
      "region": "Bheri",
      "iata": "KEP",
      "icao": "VNNG",
      "name": "Nepalgunj Airport",
      "latitude": 28.1036,
      "longitude": 81.667
    },
    {
      "countryCode": "NP",
      "region": "Bheri",
      "iata": "SKH",
      "icao": "VNSK",
      "name": "Surkhet Airport",
      "latitude": 28.586,
      "longitude": 81.636
    },
    {
      "countryCode": "NP",
      "region": "Dhawalagiri",
      "iata": "BGL",
      "icao": "VNBL",
      "name": "Balewa Airport",
      "latitude": 28.2128,
      "longitude": 83.6663
    },
    {
      "countryCode": "NP",
      "region": "Dhawalagiri",
      "iata": "JMO",
      "icao": "VNJS",
      "name": "Jomsom Airport",
      "latitude": 28.7804,
      "longitude": 83.723
    },
    {
      "countryCode": "NP",
      "region": "Gandaki",
      "iata": "NGX",
      "icao": "VNMA",
      "name": "Manang Airport",
      "latitude": 28.6414,
      "longitude": 84.0892
    },
    {
      "countryCode": "NP",
      "region": "Gandaki",
      "iata": "PKR",
      "icao": "VNPK",
      "name": "Pokhara Airport",
      "latitude": 28.2009,
      "longitude": 83.9821
    },
    {
      "countryCode": "NP",
      "region": "Janakpur",
      "iata": "JKR",
      "icao": "VNJP",
      "name": "Janakpur Airport",
      "latitude": 26.7088,
      "longitude": 85.9224
    },
    {
      "countryCode": "NP",
      "region": "Janakpur",
      "iata": "RHP",
      "icao": "VNRC",
      "name": "Ramechhap Airport",
      "latitude": 27.394,
      "longitude": 86.0614
    },
    {
      "countryCode": "NP",
      "region": "Karnali",
      "iata": "DOP",
      "icao": "VNDP",
      "name": "Dolpa Airport",
      "latitude": 28.9857,
      "longitude": 82.8191
    },
    {
      "countryCode": "NP",
      "region": "Karnali",
      "iata": "IMK",
      "icao": "VNST",
      "name": "Simikot Airport",
      "latitude": 29.9711,
      "longitude": 81.8189
    },
    {
      "countryCode": "NP",
      "region": "Karnali",
      "iata": "JUM",
      "icao": "VNJL",
      "name": "Jumla Airport",
      "latitude": 29.2742,
      "longitude": 82.1933
    },
    {
      "countryCode": "NP",
      "region": "Kosi",
      "iata": "BHP",
      "icao": "VNBJ",
      "name": "Bhojpur Airport",
      "latitude": 27.1474,
      "longitude": 87.0508
    },
    {
      "countryCode": "NP",
      "region": "Kosi",
      "iata": "BIR",
      "icao": "VNVT",
      "name": "Biratnagar Airport",
      "latitude": 26.4815,
      "longitude": 87.264
    },
    {
      "countryCode": "NP",
      "region": "Kosi",
      "iata": "RJB",
      "icao": "VNRB",
      "name": "Rajbiraj Airport",
      "latitude": 26.5101,
      "longitude": 86.7339
    },
    {
      "countryCode": "NP",
      "region": "Kosi",
      "iata": "TMI",
      "icao": "VNTR",
      "name": "Tumlingtar Airport",
      "latitude": 27.315,
      "longitude": 87.1933
    },
    {
      "countryCode": "NP",
      "region": "Lumbini",
      "iata": "BWA",
      "icao": "VNBW",
      "name": "Gautam Buddha Airport",
      "latitude": 27.5057,
      "longitude": 83.4163
    },
    {
      "countryCode": "NP",
      "region": "Mahakali",
      "iata": "SIH",
      "icao": "VNDT",
      "name": "Silgadhi Airport",
      "latitude": 29.2631,
      "longitude": 80.936
    },
    {
      "countryCode": "NP",
      "region": "Mahakali",
      "iata": "XMG",
      "icao": "VNMN",
      "name": "Mahendranagar Airport",
      "latitude": 28.9632,
      "longitude": 80.1479
    },
    {
      "countryCode": "NP",
      "region": "Mechi",
      "iata": "BDP",
      "icao": "VNCG",
      "name": "Bhadrapur Airport (Chandragadhi Airport)",
      "latitude": 26.5708,
      "longitude": 88.0796
    },
    {
      "countryCode": "NP",
      "region": "Mechi",
      "iata": "TPJ",
      "icao": "VNTJ",
      "name": "Taplejung Airport",
      "latitude": 27.3509,
      "longitude": 87.6953
    },
    {
      "countryCode": "NP",
      "region": "Narayani",
      "iata": "BHR",
      "icao": "VNBP",
      "name": "Bharatpur Airport",
      "latitude": 27.6781,
      "longitude": 84.4294
    },
    {
      "countryCode": "NP",
      "region": "Narayani",
      "iata": "GKH",
      "icao": "VNGK",
      "name": "Palungtar Airport",
      "latitude": 28.0385,
      "longitude": 84.4664
    },
    {
      "countryCode": "NP",
      "region": "Narayani",
      "iata": "MEY",
      "icao": "VNMG",
      "name": "Meghauli Airport",
      "latitude": 27.5774,
      "longitude": 84.2288
    },
    {
      "countryCode": "NP",
      "region": "Narayani",
      "iata": "SIF",
      "icao": "VNSI",
      "name": "Simara Airport",
      "latitude": 27.1595,
      "longitude": 84.9801
    },
    {
      "countryCode": "NP",
      "region": "Rapti",
      "iata": "DNP",
      "icao": "VNDG",
      "name": "Tribhuvannagar Airport (Dang Airport)",
      "latitude": 28.1111,
      "longitude": 82.2942
    },
    {
      "countryCode": "NP",
      "region": "Rapti",
      "iata": "RPA",
      "icao": "VNRP",
      "name": "Rolpa Airport",
      "latitude": 28.2673,
      "longitude": 82.7565
    },
    {
      "countryCode": "NP",
      "region": "Rapti",
      "iata": "RUK",
      "icao": "VNRK",
      "name": "Chaurjahari Airport",
      "latitude": 28.627,
      "longitude": 82.195
    },
    {
      "countryCode": "NP",
      "region": "Sagarmatha",
      "iata": "JIR",
      "icao": "VNJI",
      "name": "Jiri Airport",
      "latitude": 27.6263,
      "longitude": 86.2306
    },
    {
      "countryCode": "NP",
      "region": "Sagarmatha",
      "iata": "LDN",
      "icao": "VNLD",
      "name": "Lamidanda Airport",
      "latitude": 27.2531,
      "longitude": 86.67
    },
    {
      "countryCode": "NP",
      "region": "Sagarmatha",
      "iata": "LUA",
      "icao": "VNLK",
      "name": "Tenzing-Hillary Airport",
      "latitude": 27.6869,
      "longitude": 86.7297
    },
    {
      "countryCode": "NP",
      "region": "Sagarmatha",
      "iata": "PPL",
      "icao": "VNPL",
      "name": "Phaplu Airport",
      "latitude": 27.5178,
      "longitude": 86.5845
    },
    {
      "countryCode": "NP",
      "region": "Sagarmatha",
      "iata": "RUM",
      "icao": "VNRT",
      "name": "Rumjatar Airport",
      "latitude": 27.3035,
      "longitude": 86.5504
    },
    {
      "countryCode": "NP",
      "region": "Sagarmatha",
      "iata": "SYH",
      "icao": "VNSB",
      "name": "Syangboche Airport",
      "latitude": 27.8112,
      "longitude": 86.7123
    },
    {
      "countryCode": "NP",
      "region": "Seti",
      "iata": "BIT",
      "icao": "VNBT",
      "name": "Baitadi Airport",
      "latitude": 29.4653,
      "longitude": 80.5492
    },
    {
      "countryCode": "NP",
      "region": "Seti",
      "iata": "BJH",
      "icao": "VNBG",
      "name": "Bajhang Airport",
      "latitude": 29.539,
      "longitude": 81.1854
    },
    {
      "countryCode": "NP",
      "region": "Seti",
      "iata": "DAP",
      "icao": "VNDL",
      "name": "Darchula Airport",
      "latitude": 29.6692,
      "longitude": 80.5484
    },
    {
      "countryCode": "NP",
      "region": "Seti",
      "iata": "DHI",
      "icao": "VNDH",
      "name": "Dhangadhi Airport",
      "latitude": 28.7533,
      "longitude": 80.5819
    },
    {
      "countryCode": "NP",
      "region": "Seti",
      "iata": "FEB",
      "icao": "VNSR",
      "name": "Sanfebagar Airport",
      "latitude": 29.2366,
      "longitude": 81.2153
    },
    {
      "countryCode": "NP",
      "region": "Seti",
      "iata": "TPU",
      "icao": "VNTP",
      "name": "Tikapur Airport",
      "latitude": 28.5219,
      "longitude": 81.123
    }
  ]
}