{
  "$schema": "1.0.0",
  "lastUpdated": "2026-02-15",
  "sources": [
    "SimpleLocalize",
    "CLDR",
    "mledoze/countries",
    "Manual Overrides"
  ],
  "basics": {
    "name": "New Zealand",
    "officialName": "New Zealand",
    "nativeName": "New Zealand",
    "officialNativeName": "New Zealand",
    "capital": "Wellington",
    "capitalCoordinates": [
      -41.28664,
      174.77557
    ],
    "coordinates": [
      -41,
      174
    ],
    "continent": "Australia",
    "region": "Australia and New Zealand",
    "subregion": "Australia and New Zealand",
    "population": 0,
    "area": 270467,
    "flagEmoji": "üá≥üáø",
    "tld": [
      ".nz"
    ],
    "landlocked": false,
    "borders": [],
    "languages": [
      {
        "code": "en",
        "iso639_2": "eng",
        "iso639_3": "eng",
        "name": "English",
        "nativeName": "English",
        "official": true,
        "direction": "ltr",
        "countries": []
      },
      {
        "code": "mi",
        "iso639_2": "mri",
        "iso639_3": "mri",
        "name": "MƒÅori",
        "nativeName": "te reo MƒÅori",
        "official": true,
        "direction": "ltr",
        "countries": []
      }
    ],
    "demonym": "New Zealander"
  },
  "codes": {
    "iso3166Alpha2": "NZ",
    "iso3166Alpha3": "NZL",
    "iso3166Numeric": "554",
    "bcp47": [
      "en-NZ"
    ],
    "internetTld": "nz",
    "ioc": "NZL",
    "fifa": "NZL",
    "vehicleCode": "NZ",
    "fips10": "NZ",
    "unLocode": "NZ",
    "stanag1059": "NZL",
    "itu": "NZL",
    "uic": "64 NZ",
    "maritime": 512,
    "mmc": 530
  },
  "currency": {
    "code": "NZD",
    "numericCode": 554,
    "name": "New Zealand Dollar",
    "nativeName": "New Zealand dollar",
    "symbol": "$",
    "narrowSymbol": "$",
    "symbolPosition": "before",
    "decimalSeparator": ".",
    "thousandsSeparator": ",",
    "decimalDigits": 2,
    "subunitValue": 100,
    "subunitName": "Cents",
    "pattern": "¬§#,##0.00",
    "example": "$123,456.79",
    "accountingExample": "($1,234.56)"
  },
  "dateTime": {
    "firstDayOfWeek": 1,
    "clockFormat": "24h",
    "dateFormats": {
      "full": "EEEE, MMMM d, y",
      "long": "MMMM d, y",
      "medium": "MMM d, y",
      "short": "M/d/yy"
    },
    "timeFormats": {
      "full": "h:mm:ss‚ÄØa zzzz",
      "long": "h:mm:ss‚ÄØa z",
      "medium": "h:mm:ss‚ÄØa",
      "short": "h:mm‚ÄØa"
    },
    "datePatterns": {
      "full": "yMMMMEEEEd",
      "long": "yMMMMd",
      "medium": "yMMMd",
      "short": "yyMd"
    },
    "timePatterns": {
      "full": "ahmmsszzzz",
      "long": "ahmmssz",
      "medium": "ahmmss",
      "short": "ahmm"
    },
    "monthNames": {
      "wide": [
        "January",
        "February",
        "March",
        "April",
        "May",
        "June",
        "July",
        "August",
        "September",
        "October",
        "November",
        "December"
      ],
      "abbreviated": [
        "Jan",
        "Feb",
        "Mar",
        "Apr",
        "May",
        "Jun",
        "Jul",
        "Aug",
        "Sep",
        "Oct",
        "Nov",
        "Dec"
      ],
      "narrow": [
        "J",
        "F",
        "M",
        "A",
        "M",
        "J",
        "J",
        "A",
        "S",
        "O",
        "N",
        "D"
      ]
    },
    "dayNames": {
      "wide": [
        "Sunday",
        "Monday",
        "Tuesday",
        "Wednesday",
        "Thursday",
        "Friday",
        "Saturday"
      ],
      "abbreviated": [
        "Sun",
        "Mon",
        "Tue",
        "Wed",
        "Thu",
        "Fri",
        "Sat"
      ],
      "narrow": [
        "S",
        "M",
        "T",
        "W",
        "T",
        "F",
        "S"
      ]
    },
    "amPmMarkers": [
      "AM",
      "PM"
    ],
    "timezones": [
      "UTC-11:00",
      "UTC-10:00",
      "UTC+12:00",
      "UTC+12:45",
      "UTC+13:00"
    ],
    "primaryTimezone": "UTC-11:00",
    "utcOffset": "+00:00"
  },
  "numberFormat": {
    "decimalSeparator": ".",
    "thousandsSeparator": ",",
    "digitGrouping": "3",
    "pattern": "#,##0.###",
    "percentExample": "25.5%",
    "example": "1,234,567.89",
    "numberingSystem": "latn"
  },
  "phone": {
    "callingCode": "+64",
    "trunkPrefix": "0",
    "internationalPrefix": "00",
    "exampleFormat": "+64 555 123 4567",
    "subscriberNumberLengths": []
  },
  "addressFormat": {
    "format": "%N%n%A%n%Z %C",
    "lineOrder": [
      "name",
      "address",
      "city"
    ],
    "postalCodeFormat": "####",
    "postalCodeRegex": "^(\\d{4})$",
    "postalCodeExample": "",
    "administrativeDivisionName": "Province",
    "administrativeDivisionType": "Province"
  },
  "locale": {
    "writingDirection": "ltr",
    "measurementSystem": "metric",
    "temperatureScale": "celsius",
    "paperSize": "A4",
    "drivingSide": "right",
    "weekNumbering": "ISO"
  },
  "airports": [
    {
      "countryCode": "NZ",
      "region": "Auckland",
      "iata": "AKL",
      "icao": "NZAA",
      "name": "Auckland Airport",
      "latitude": -37.0081,
      "longitude": 174.792
    },
    {
      "countryCode": "NZ",
      "region": "Auckland",
      "iata": "AMZ",
      "icao": "NZAR",
      "name": "Ardmore Airport",
      "latitude": -37.0297,
      "longitude": 174.973
    },
    {
      "countryCode": "NZ",
      "region": "Auckland",
      "iata": "CMV",
      "icao": "NZCX",
      "name": "Coromandel Aerodrome",
      "latitude": -36.7917,
      "longitude": 175.509
    },
    {
      "countryCode": "NZ",
      "region": "Auckland",
      "iata": "GBZ",
      "icao": "NZGB",
      "name": "Great Barrier Aerodrome",
      "latitude": -36.2414,
      "longitude": 175.472
    },
    {
      "countryCode": "NZ",
      "region": "Auckland",
      "iata": "WIK",
      "icao": "NZKE",
      "name": "Waiheke Island Aerodrome",
      "latitude": -36.8089,
      "longitude": 175.086
    },
    {
      "countryCode": "NZ",
      "region": "Bay of Plenty",
      "iata": "ROT",
      "icao": "NZRO",
      "name": "Rotorua Regional Airport",
      "latitude": -38.1092,
      "longitude": 176.317
    },
    {
      "countryCode": "NZ",
      "region": "Bay of Plenty",
      "iata": "TRG",
      "icao": "NZTG",
      "name": "Tauranga Airport",
      "latitude": -37.6719,
      "longitude": 176.196
    },
    {
      "countryCode": "NZ",
      "region": "Bay of Plenty",
      "iata": "WHK",
      "icao": "NZWK",
      "name": "Whakatane Airport",
      "latitude": -37.9206,
      "longitude": 176.914
    },
    {
      "countryCode": "NZ",
      "region": "Canterbury",
      "iata": "ASG",
      "icao": "NZAS",
      "name": "Ashburton Aerodrome",
      "latitude": -43.9033,
      "longitude": 171.797
    },
    {
      "countryCode": "NZ",
      "region": "Canterbury",
      "iata": "CHC",
      "icao": "NZCH",
      "name": "Christchurch International Airport",
      "latitude": -43.4894,
      "longitude": 172.532
    },
    {
      "countryCode": "NZ",
      "region": "Canterbury",
      "iata": "",
      "icao": "NZFF",
      "name": "Forest Field Aerodrome",
      "latitude": -43.3858,
      "longitude": 172.3605
    },
    {
      "countryCode": "NZ",
      "region": "Canterbury",
      "iata": "GTN",
      "icao": "NZGT",
      "name": "Glentanner Aerodrome",
      "latitude": -43.9067,
      "longitude": 170.128
    },
    {
      "countryCode": "NZ",
      "region": "Canterbury",
      "iata": "KBZ",
      "icao": "NZKI",
      "name": "Kaikoura Aerodrome",
      "latitude": -42.425,
      "longitude": 173.605
    },
    {
      "countryCode": "NZ",
      "region": "Canterbury",
      "iata": "TIU",
      "icao": "NZTU",
      "name": "Richard Pearse Airport",
      "latitude": -44.3028,
      "longitude": 171.225
    },
    {
      "countryCode": "NZ",
      "region": "Canterbury",
      "iata": "TWZ",
      "icao": "NZUK",
      "name": "Pukaki Airport",
      "latitude": -44.235,
      "longitude": 170.118
    },
    {
      "countryCode": "NZ",
      "region": "Chatham Islands Territory",
      "iata": "CHT",
      "icao": "NZCI",
      "name": "Chatham Islands / Tuuta Airport",
      "latitude": -43.81,
      "longitude": -176.457
    },
    {
      "countryCode": "NZ",
      "region": "Canterbury",
      "iata": "",
      "icao": "NZRT",
      "name": "Rangiora Airfield WMS",
      "latitude": -43.2892,
      "longitude": 172.5413
    },
    {
      "countryCode": "NZ",
      "region": "Gisborne",
      "iata": "GIS",
      "icao": "NZGS",
      "name": "Gisborne Airport",
      "latitude": -38.6633,
      "longitude": 177.978
    },
    {
      "countryCode": "NZ",
      "region": "Hawke's Bay",
      "iata": "NPE",
      "icao": "NZNR",
      "name": "Hawke's Bay Airport",
      "latitude": -39.4658,
      "longitude": 176.87
    },
    {
      "countryCode": "NZ",
      "region": "Hawke's Bay",
      "iata": "WIR",
      "icao": "NZWO",
      "name": "Wairoa Aerodrome",
      "latitude": -39.0069,
      "longitude": 177.407
    },
    {
      "countryCode": "NZ",
      "region": "Manawatu-Wanganui",
      "iata": "OHA",
      "icao": "NZOH",
      "name": "RNZAF Base Ohakea",
      "latitude": -40.206,
      "longitude": 175.388
    },
    {
      "countryCode": "NZ",
      "region": "Manawatu-Wanganui",
      "iata": "PMR",
      "icao": "NZPM",
      "name": "Palmerston North Airport",
      "latitude": -40.3206,
      "longitude": 175.617
    },
    {
      "countryCode": "NZ",
      "region": "Manawatu-Wanganui",
      "iata": "WAG",
      "icao": "NZWU",
      "name": "Whanganui Airport",
      "latitude": -39.9622,
      "longitude": 175.025
    },
    {
      "countryCode": "NZ",
      "region": "Marlborough",
      "iata": "BHE",
      "icao": "NZWB",
      "name": "Woodbourne Airport",
      "latitude": -41.5183,
      "longitude": 173.87
    },
    {
      "countryCode": "NZ",
      "region": "Marlborough",
      "iata": "PCN",
      "icao": "NZPN",
      "name": "Picton Aerodrome",
      "latitude": -41.3461,
      "longitude": 173.956
    },
    {
      "countryCode": "NZ",
      "region": "Nelson",
      "iata": "NSN",
      "icao": "NZNS",
      "name": "Nelson Airport",
      "latitude": -41.2983,
      "longitude": 173.221
    },
    {
      "countryCode": "NZ",
      "region": "Northland",
      "iata": "DGR",
      "icao": "NZDA",
      "name": "Dargaville Aerodrome",
      "latitude": -35.9397,
      "longitude": 173.894
    },
    {
      "countryCode": "NZ",
      "region": "Northland",
      "iata": "KAT",
      "icao": "NZKT",
      "name": "Kaitaia Airport",
      "latitude": -35.07,
      "longitude": 173.285
    },
    {
      "countryCode": "NZ",
      "region": "Northland",
      "iata": "KKE",
      "icao": "NZKK",
      "name": "Kerikeri Airport (Bay of Islands Airport)",
      "latitude": -35.2628,
      "longitude": 173.912
    },
    {
      "countryCode": "NZ",
      "region": "Northland",
      "iata": "KKO",
      "icao": "NZKO",
      "name": "Kaikohe Aerodrome",
      "latitude": -35.4511,
      "longitude": 173.817
    },
    {
      "countryCode": "NZ",
      "region": "Northland",
      "iata": "WRE",
      "icao": "NZWR",
      "name": "Whangarei Airport",
      "latitude": -35.7683,
      "longitude": 174.365
    },
    {
      "countryCode": "NZ",
      "region": "Otago",
      "iata": "ALR",
      "icao": "NZLX",
      "name": "Alexandra Aerodrome",
      "latitude": -45.2117,
      "longitude": 169.373
    },
    {
      "countryCode": "NZ",
      "region": "Otago",
      "iata": "DUD",
      "icao": "NZDN",
      "name": "Dunedin International Airport",
      "latitude": -45.9281,
      "longitude": 170.198
    },
    {
      "countryCode": "NZ",
      "region": "Otago",
      "iata": "OAM",
      "icao": "NZOU",
      "name": "Oamaru Airport",
      "latitude": -44.97,
      "longitude": 171.082
    },
    {
      "countryCode": "NZ",
      "region": "Otago",
      "iata": "WKA",
      "icao": "NZWF",
      "name": "Wanaka Airport",
      "latitude": -44.7222,
      "longitude": 169.246
    },
    {
      "countryCode": "NZ",
      "region": "Otago",
      "iata": "ZQN",
      "icao": "NZQN",
      "name": "Queenstown Airport",
      "latitude": -45.0211,
      "longitude": 168.739
    },
    {
      "countryCode": "NZ",
      "region": "Southland",
      "iata": "IVC",
      "icao": "NZNV",
      "name": "Invercargill Airport",
      "latitude": -46.4124,
      "longitude": 168.313
    },
    {
      "countryCode": "NZ",
      "region": "Southland",
      "iata": "MFN",
      "icao": "NZMF",
      "name": "Milford Sound Airport",
      "latitude": -44.6733,
      "longitude": 167.923
    },
    {
      "countryCode": "NZ",
      "region": "Southland",
      "iata": "MON",
      "icao": "NZMC",
      "name": "Mount Cook Aerodrome",
      "latitude": -43.765,
      "longitude": 170.133
    },
    {
      "countryCode": "NZ",
      "region": "Southland",
      "iata": "SZS",
      "icao": "NZRC",
      "name": "Ryan's Creek Aerodrome",
      "latitude": -46.8997,
      "longitude": 168.101
    },
    {
      "countryCode": "NZ",
      "region": "Southland",
      "iata": "TEU",
      "icao": "NZMO",
      "name": "Te Anau Airport (Manapouri Airport)",
      "latitude": -45.5331,
      "longitude": 167.65
    },
    {
      "countryCode": "NZ",
      "region": "Southland",
      "iata": "WHO",
      "icao": "",
      "name": "Franz Josef Glacier Aerodrome",
      "latitude": -43.3631,
      "longitude": 170.134
    },
    {
      "countryCode": "NZ",
      "region": "Taranaki",
      "iata": "NPL",
      "icao": "NZNP",
      "name": "New Plymouth Airport",
      "latitude": -39.0086,
      "longitude": 174.179
    },
    {
      "countryCode": "NZ",
      "region": "Tasman",
      "iata": "KTF",
      "icao": "NZTK",
      "name": "Takaka Aerodrome",
      "latitude": -40.8133,
      "longitude": 172.775
    },
    {
      "countryCode": "NZ",
      "region": "Tasman",
      "iata": "MZP",
      "icao": "NZMK",
      "name": "Motueka Aerodrome",
      "latitude": -41.1233,
      "longitude": 172.989
    },
    {
      "countryCode": "NZ",
      "region": "Waikato",
      "iata": "HLZ",
      "icao": "NZHN",
      "name": "Hamilton Airport",
      "latitude": -37.8667,
      "longitude": 175.332
    },
    {
      "countryCode": "NZ",
      "region": "Waikato",
      "iata": "MTA",
      "icao": "NZMA",
      "name": "Matamata Airport",
      "latitude": -37.7344,
      "longitude": 175.742
    },
    {
      "countryCode": "NZ",
      "region": "Waikato",
      "iata": "RAG",
      "icao": "NZRA",
      "name": "Raglan Aerodrome",
      "latitude": -37.8047,
      "longitude": 174.86
    },
    {
      "countryCode": "NZ",
      "region": "Waikato",
      "iata": "THH",
      "icao": "",
      "name": "Taharoa Aerodrome",
      "latitude": -38.1811,
      "longitude": 174.708
    },
    {
      "countryCode": "NZ",
      "region": "Waikato",
      "iata": "TKZ",
      "icao": "NZTO",
      "name": "Tokoroa Aerodrome",
      "latitude": -38.2367,
      "longitude": 175.892
    },
    {
      "countryCode": "NZ",
      "region": "Waikato",
      "iata": "TMZ",
      "icao": "NZTH",
      "name": "Thames Aerodrome",
      "latitude": -37.1567,
      "longitude": 175.55
    },
    {
      "countryCode": "NZ",
      "region": "Waikato",
      "iata": "TUO",
      "icao": "NZAP",
      "name": "Taupo Airport",
      "latitude": -38.7397,
      "longitude": 176.084
    },
    {
      "countryCode": "NZ",
      "region": "Waikato",
      "iata": "WTZ",
      "icao": "NZWT",
      "name": "Whitianga Aerodrome",
      "latitude": -36.8317,
      "longitude": 175.679
    },
    {
      "countryCode": "NZ",
      "region": "Wellington",
      "iata": "MRO",
      "icao": "NZMS",
      "name": "Hood Aerodrome",
      "latitude": -40.9733,
      "longitude": 175.634
    },
    {
      "countryCode": "NZ",
      "region": "Wellington",
      "iata": "PPQ",
      "icao": "NZPP",
      "name": "Kapiti Coast Airport",
      "latitude": -40.9047,
      "longitude": 174.989
    },
    {
      "countryCode": "NZ",
      "region": "Wellington",
      "iata": "WLG",
      "icao": "NZWN",
      "name": "Wellington International Airport",
      "latitude": -41.3272,
      "longitude": 174.805
    },
    {
      "countryCode": "NZ",
      "region": "West Coast",
      "iata": "GMN",
      "icao": "NZGM",
      "name": "Greymouth Airport",
      "latitude": -42.4617,
      "longitude": 171.19
    },
    {
      "countryCode": "NZ",
      "region": "West Coast",
      "iata": "HKK",
      "icao": "NZHK",
      "name": "Hokitika Airport",
      "latitude": -42.7136,
      "longitude": 170.985
    },
    {
      "countryCode": "NZ",
      "region": "West Coast",
      "iata": "WSZ",
      "icao": "NZWS",
      "name": "Westport Airport",
      "latitude": -41.7381,
      "longitude": 171.581
    }
  ]
}