[
  {
    "countryCode": "PF",
    "region": "Iles Tuamotu-Gambier",
    "iata": "AAA",
    "icao": "NTGA",
    "name": "Anaa Airport",
    "latitude": -17.3526,
    "longitude": -145.51
  },
  {
    "countryCode": "AU",
    "region": "Queensland",
    "iata": "AAB",
    "icao": "YARY",
    "name": "Arrabury Airport",
    "latitude": -26.693,
    "longitude": 141.048
  },
  {
    "countryCode": "EG",
    "region": "Shamal Sina'",
    "iata": "AAC",
    "icao": "HEAR",
    "name": "El Arish International Airport",
    "latitude": 31.0733,
    "longitude": 33.8358
  },
  {
    "countryCode": "SO",
    "region": "Galguduud",
    "iata": "AAD",
    "icao": "",
    "name": "Adado Airport",
    "latitude": 6.0958,
    "longitude": 46.6375
  },
  {
    "countryCode": "DZ",
    "region": "Annaba",
    "iata": "AAE",
    "icao": "DABB",
    "name": "Rabah Bitat Airport (Les Salines Airport)",
    "latitude": 36.8222,
    "longitude": 7.80917
  },
  {
    "countryCode": "US",
    "region": "Florida",
    "iata": "AAF",
    "icao": "KAAF",
    "name": "Apalachicola Regional Airport",
    "latitude": 29.7275,
    "longitude": -85.0275
  },
  {
    "countryCode": "BR",
    "region": "Parana",
    "iata": "AAG",
    "icao": "SSYA",
    "name": "Avelino Vieira Airport",
    "latitude": -24.1039,
    "longitude": -49.7891
  },
  {
    "countryCode": "DE",
    "region": "Nordrhein-Westfalen",
    "iata": "AAH",
    "icao": "EDKA",
    "name": "Merzbruck Airport",
    "latitude": 50.8231,
    "longitude": 6.18639
  },
  {
    "countryCode": "BR",
    "region": "Tocantins",
    "iata": "AAI",
    "icao": "SWRA",
    "name": "Arraias Airport",
    "latitude": -13.0252,
    "longitude": -46.8841
  },
  {
    "countryCode": "SR",
    "region": "Sipaliwini",
    "iata": "AAJ",
    "icao": "SMCA",
    "name": "Cayana Airstrip",
    "latitude": 3.89868,
    "longitude": -55.5779
  },
  {
    "countryCode": "KI",
    "region": "Gilbert Islands",
    "iata": "AAK",
    "icao": "NGUK",
    "name": "Aranuka Airport",
    "latitude": 0.185278,
    "longitude": 173.637
  },
  {
    "countryCode": "DK",
    "region": "Nordjylland",
    "iata": "AAL",
    "icao": "EKYT",
    "name": "Aalborg Airport",
    "latitude": 57.0928,
    "longitude": 9.84924
  },
  {
    "countryCode": "ZA",
    "region": "Mpumalanga",
    "iata": "AAM",
    "icao": "FAMD",
    "name": "Mala Mala Airport",
    "latitude": -24.8181,
    "longitude": 31.5446
  },
  {
    "countryCode": "AE",
    "region": "Abu Zaby",
    "iata": "AAN",
    "icao": "OMAL",
    "name": "Al Ain International Airport",
    "latitude": 24.2617,
    "longitude": 55.6092
  },
  {
    "countryCode": "VE",
    "region": "Anzoategui",
    "iata": "AAO",
    "icao": "SVAN",
    "name": "Anaco Airport",
    "latitude": 9.43023,
    "longitude": -64.4707
  },
  {
    "countryCode": "ID",
    "region": "Kalimantan Timur",
    "iata": "AAP",
    "icao": "WALS",
    "name": "APT Pranoto International Airport",
    "latitude": -0.374448,
    "longitude": 117.249
  },
  {
    "countryCode": "RU",
    "region": "Krasnodarskiy kray",
    "iata": "AAQ",
    "icao": "URKA",
    "name": "Anapa Airport",
    "latitude": 45.0021,
    "longitude": 37.3473
  },
  {
    "countryCode": "DK",
    "region": "Midtjylland",
    "iata": "AAR",
    "icao": "EKAH",
    "name": "Aarhus Airport",
    "latitude": 56.3,
    "longitude": 10.619
  },
  {
    "countryCode": "ID",
    "region": "Papua",
    "iata": "AAS",
    "icao": "",
    "name": "Apalapsili Airport",
    "latitude": -3.8832,
    "longitude": 139.311
  },
  {
    "countryCode": "CN",
    "region": "Xinjiang",
    "iata": "AAT",
    "icao": "ZWAT",
    "name": "Altay Airport",
    "latitude": 47.7499,
    "longitude": 88.0858
  },
  {
    "countryCode": "WS",
    "region": "Tuamasaga",
    "iata": "AAU",
    "icao": "NSAU",
    "name": "Asau Airport",
    "latitude": -13.5051,
    "longitude": -172.628
  },
  {
    "countryCode": "PH",
    "region": "Negros Occidental",
    "iata": "AAV",
    "icao": "RPMA",
    "name": "Allah Valley Airport",
    "latitude": 6.36682,
    "longitude": 124.751
  },
  {
    "countryCode": "BR",
    "region": "Minas Gerais",
    "iata": "AAX",
    "icao": "SBAX",
    "name": "Araxa Airport",
    "latitude": -19.5632,
    "longitude": -46.9604
  },
  {
    "countryCode": "YE",
    "region": "Al Mahrah",
    "iata": "AAY",
    "icao": "OYGD",
    "name": "Al Ghaydah Airport",
    "latitude": 16.1917,
    "longitude": 52.175
  },
  {
    "countryCode": "GT",
    "region": "Quetzaltenango",
    "iata": "AAZ",
    "icao": "MGQZ",
    "name": "Quetzaltenango Airport",
    "latitude": 14.8656,
    "longitude": -91.502
  },
  {
    "countryCode": "RU",
    "region": "Khakasiya, Respublika",
    "iata": "ABA",
    "icao": "UNAA",
    "name": "Abakan International Airport",
    "latitude": 53.74,
    "longitude": 91.385
  },
  {
    "countryCode": "NG",
    "region": "Delta",
    "iata": "ABB",
    "icao": "DNAS",
    "name": "Asaba International Airport",
    "latitude": 6.20417,
    "longitude": 6.66528
  },
  {
    "countryCode": "ES",
    "region": "Castilla-La Mancha",
    "iata": "ABC",
    "icao": "LEAB",
    "name": "Albacete Airport",
    "latitude": 38.9485,
    "longitude": -1.86352
  },
  {
    "countryCode": "IR",
    "region": "Khuzestan",
    "iata": "ABD",
    "icao": "OIAA",
    "name": "Abadan International Airport",
    "latitude": 30.3711,
    "longitude": 48.2283
  },
  {
    "countryCode": "US",
    "region": "Pennsylvania",
    "iata": "ABE",
    "icao": "KABE",
    "name": "Lehigh Valley International Airport",
    "latitude": 40.6521,
    "longitude": -75.4408
  },
  {
    "countryCode": "KI",
    "region": "Gilbert Islands",
    "iata": "ABF",
    "icao": "NGAB",
    "name": "Abaiang Atoll Airport",
    "latitude": 1.79861,
    "longitude": 173.041
  },
  {
    "countryCode": "AU",
    "region": "Queensland",
    "iata": "ABG",
    "icao": "YABI",
    "name": "Abingdon Airport",
    "latitude": -17.6167,
    "longitude": 143.167
  },
  {
    "countryCode": "AU",
    "region": "Queensland",
    "iata": "ABH",
    "icao": "YAPH",
    "name": "Alpha Airport",
    "latitude": -23.6461,
    "longitude": 146.584
  },
  {
    "countryCode": "US",
    "region": "Texas",
    "iata": "ABI",
    "icao": "KABI",
    "name": "Abilene Regional Airport",
    "latitude": 32.4113,
    "longitude": -99.6819
  },
  {
    "countryCode": "CI",
    "region": "Abidjan",
    "iata": "ABJ",
    "icao": "DIAP",
    "name": "Port Bouet Airport (Felix Houphouet Boigny Int'l)",
    "latitude": 5.26139,
    "longitude": -3.92629
  },
  {
    "countryCode": "ET",
    "region": "Sumale",
    "iata": "ABK",
    "icao": "HAKD",
    "name": "Kabri Dar Airport",
    "latitude": 6.734,
    "longitude": 44.253
  },
  {
    "countryCode": "US",
    "region": "Alaska",
    "iata": "ABL",
    "icao": "PAFM",
    "name": "Ambler Airport",
    "latitude": 67.1063,
    "longitude": -157.857
  },
  {
    "countryCode": "AU",
    "region": "Queensland",
    "iata": "ABM",
    "icao": "YNPE",
    "name": "Northern Peninsula Airport",
    "latitude": -10.9508,
    "longitude": 142.459
  },
  {
    "countryCode": "SR",
    "region": "Marowijne",
    "iata": "ABN",
    "icao": "SMBN",
    "name": "Albina Airstrip",
    "latitude": 5.51272,
    "longitude": -54.0501
  },
  {
    "countryCode": "CI",
    "region": "Comoe",
    "iata": "ABO",
    "icao": "DIAO",
    "name": "Aboisso Airport",
    "latitude": 5.46194,
    "longitude": -3.23472
  },
  {
    "countryCode": "PG",
    "region": "Western",
    "iata": "ABP",
    "icao": "",
    "name": "Atkamba Airport",
    "latitude": -6.06556,
    "longitude": 141.095
  },
  {
    "countryCode": "US",
    "region": "New Mexico",
    "iata": "ABQ",
    "icao": "KABQ",
    "name": "Albuquerque International Sunport",
    "latitude": 35.0402,
    "longitude": -106.609
  },
  {
    "countryCode": "US",
    "region": "South Dakota",
    "iata": "ABR",
    "icao": "KABR",
    "name": "Aberdeen Regional Airport",
    "latitude": 45.4491,
    "longitude": -98.4218
  },
  {
    "countryCode": "EG",
    "region": "Aswan",
    "iata": "ABS",
    "icao": "HEBL",
    "name": "Abu Simbel Airport",
    "latitude": 22.376,
    "longitude": 31.6117
  },
  {
    "countryCode": "SA",
    "region": "Al Bahah",
    "iata": "ABT",
    "icao": "OEBA",
    "name": "Al-Baha Domestic Airport",
    "latitude": 20.2961,
    "longitude": 41.6343
  },
  {
    "countryCode": "ID",
    "region": "Nusa Tenggara Timur",
    "iata": "ABU",
    "icao": "WATA",
    "name": "A.A. Bere Tallo Airport",
    "latitude": -9.07305,
    "longitude": 124.905
  },
  {
    "countryCode": "NG",
    "region": "Abuja Federal Capital Territory",
    "iata": "ABV",
    "icao": "DNAA",
    "name": "Nnamdi Azikiwe International Airport",
    "latitude": 9.00679,
    "longitude": 7.26317
  },
  {
    "countryCode": "PG",
    "region": "Central",
    "iata": "ABW",
    "icao": "",
    "name": "Abau Airport",
    "latitude": -10.1956,
    "longitude": 148.739
  },
  {
    "countryCode": "AU",
    "region": "New South Wales",
    "iata": "ABX",
    "icao": "YMAY",
    "name": "Albury Airport",
    "latitude": -36.0678,
    "longitude": 146.958
  },
  {
    "countryCode": "US",
    "region": "Georgia",
    "iata": "ABY",
    "icao": "KABY",
    "name": "Southwest Georgia Regional Airport",
    "latitude": 31.5355,
    "longitude": -84.1945
  },
  {
    "countryCode": "GB",
    "region": "Scotland",
    "iata": "ABZ",
    "icao": "EGPD",
    "name": "Aberdeen Airport",
    "latitude": 57.2019,
    "longitude": -2.19778
  },
  {
    "countryCode": "MX",
    "region": "Guerrero",
    "iata": "ACA",
    "icao": "MMAA",
    "name": "General Juan N. Alvarez International Airport",
    "latitude": 16.7571,
    "longitude": -99.754
  },
  {
    "countryCode": "US",
    "region": "Michigan",
    "iata": "ACB",
    "icao": "KACB",
    "name": "Antrim County Airport",
    "latitude": 44.9886,
    "longitude": -85.1984
  },
  {
    "countryCode": "GH",
    "region": "Greater Accra",
    "iata": "ACC",
    "icao": "DGAA",
    "name": "Kotoka International Airport",
    "latitude": 5.60519,
    "longitude": -0.166786
  },
  {
    "countryCode": "CO",
    "region": "Choco",
    "iata": "ACD",
    "icao": "SKAD",
    "name": "Alcides Fernandez Airport",
    "latitude": 8.51667,
    "longitude": -77.3
  },
  {
    "countryCode": "ES",
    "region": "Canarias",
    "iata": "ACE",
    "icao": "GCRR",
    "name": "Lanzarote Airport",
    "latitude": 28.9455,
    "longitude": -13.6052
  },
  {
    "countryCode": "CN",
    "region": "Xinjiang",
    "iata": "ACF",
    "icao": "",
    "name": "Aral Talim Airport",
    "latitude": 40.4394,
    "longitude": 81.2601
  },
  {
    "countryCode": "CH",
    "region": "Sankt Gallen",
    "iata": "ACH",
    "icao": "LSZR",
    "name": "St. Gallen-Altenrhein Airport",
    "latitude": 47.485,
    "longitude": 9.56077
  },
  {
    "countryCode": "GB",
    "region": "Guernsey",
    "iata": "ACI",
    "icao": "EGJA",
    "name": "Alderney Airport",
    "latitude": 49.7067,
    "longitude": -2.21444
  },
  {
    "countryCode": "LK",
    "region": "North Central Province",
    "iata": "ACJ",
    "icao": "VCCA",
    "name": "Anuradhapura Airport",
    "latitude": 8.30149,
    "longitude": 80.4279
  },
  {
    "countryCode": "US",
    "region": "Massachusetts",
    "iata": "ACK",
    "icao": "KACK",
    "name": "Nantucket Memorial Airport",
    "latitude": 41.2531,
    "longitude": -70.0602
  },
  {
    "countryCode": "CO",
    "region": "Valle del Cauca",
    "iata": "ACL",
    "icao": "",
    "name": "Aguaclara Airport",
    "latitude": 4.75361,
    "longitude": -73.0028
  },
  {
    "countryCode": "CO",
    "region": "Amazonas",
    "iata": "ACM",
    "icao": "",
    "name": "Arica Airport (Colombia)",
    "latitude": -2.14544,
    "longitude": -71.7581
  },
  {
    "countryCode": "MX",
    "region": "Coahuila de Zaragoza",
    "iata": "ACN",
    "icao": "MMCC",
    "name": "Ciudad Acuna International Airport",
    "latitude": 29.3329,
    "longitude": -101.099
  },
  {
    "countryCode": "CR",
    "region": "Puntarenas",
    "iata": "ACO",
    "icao": "",
    "name": "Cobano Airport",
    "latitude": 9.6921,
    "longitude": -85.0966
  },
  {
    "countryCode": "IR",
    "region": "Azarbayjan-e Sharqi",
    "iata": "ACP",
    "icao": "OITM",
    "name": "Sahand Airport",
    "latitude": 37.348,
    "longitude": 46.1279
  },
  {
    "countryCode": "CO",
    "region": "Caqueta",
    "iata": "ACR",
    "icao": "SKAC",
    "name": "Araracuara Airport",
    "latitude": -0.5833,
    "longitude": -72.4083
  },
  {
    "countryCode": "RU",
    "region": "Krasnoyarskiy kray",
    "iata": "ACS",
    "icao": "UNKS",
    "name": "Achinsk Airport",
    "latitude": 56.2683,
    "longitude": 90.5708
  },
  {
    "countryCode": "US",
    "region": "Texas",
    "iata": "ACT",
    "icao": "KACT",
    "name": "Waco Regional Airport",
    "latitude": 31.6113,
    "longitude": -97.2305
  },
  {
    "countryCode": "PA",
    "region": "Panama",
    "iata": "ACU",
    "icao": "",
    "name": "Achutupo Airport",
    "latitude": 8.43166,
    "longitude": -77.9652
  },
  {
    "countryCode": "US",
    "region": "California",
    "iata": "ACV",
    "icao": "KACV",
    "name": "Arcata-Eureka Airport",
    "latitude": 40.9781,
    "longitude": -124.109
  },
  {
    "countryCode": "CN",
    "region": "Guizhou",
    "iata": "ACX",
    "icao": "ZUYI",
    "name": "Xingyi Wanfenglin Airport",
    "latitude": 25.0864,
    "longitude": 104.959
  },
  {
    "countryCode": "US",
    "region": "New Jersey",
    "iata": "ACY",
    "icao": "KACY",
    "name": "Atlantic City International Airport",
    "latitude": 39.4576,
    "longitude": -74.5772
  },
  {
    "countryCode": "IR",
    "region": "Sistan va Baluchestan",
    "iata": "ACZ",
    "icao": "OIZB",
    "name": "Zabol Airport",
    "latitude": 31.0983,
    "longitude": 61.5439
  },
  {
    "countryCode": "TR",
    "region": "Adana",
    "iata": "ADA",
    "icao": "LTAF",
    "name": "Adana Sakirpasa Airport",
    "latitude": 36.9822,
    "longitude": 35.2804
  },
  {
    "countryCode": "TR",
    "region": "Izmir",
    "iata": "ADB",
    "icao": "LTBJ",
    "name": "Izmir Adnan Menderes Airport",
    "latitude": 38.2916,
    "longitude": 27.1487
  },
  {
    "countryCode": "PG",
    "region": "Eastern Highlands",
    "iata": "ADC",
    "icao": "AYAN",
    "name": "Andakombe Airport",
    "latitude": -7.13722,
    "longitude": 145.745
  },
  {
    "countryCode": "ET",
    "region": "Addis Ababa",
    "iata": "ADD",
    "icao": "HAAB",
    "name": "Addis Ababa Bole International Airport",
    "latitude": 8.97778,
    "longitude": 38.7994
  },
  {
    "countryCode": "YE",
    "region": "Adan",
    "iata": "ADE",
    "icao": "OYAA",
    "name": "Aden International Airport",
    "latitude": 12.8295,
    "longitude": 45.0288
  },
  {
    "countryCode": "TR",
    "region": "Adiyaman",
    "iata": "ADF",
    "icao": "LTCP",
    "name": "Adiyaman Airport",
    "latitude": 37.7314,
    "longitude": 38.4689
  },
  {
    "countryCode": "US",
    "region": "Michigan",
    "iata": "ADG",
    "icao": "KADG",
    "name": "Lenawee County Airport",
    "latitude": 41.8677,
    "longitude": -84.0773
  },
  {
    "countryCode": "RU",
    "region": "Saha, Respublika",
    "iata": "ADH",
    "icao": "UEEA",
    "name": "Aldan Airport",
    "latitude": 58.6028,
    "longitude": 125.409
  },
  {
    "countryCode": "NA",
    "region": "Erongo",
    "iata": "ADI",
    "icao": "FYAR",
    "name": "Arandis Airport",
    "latitude": -22.4622,
    "longitude": 14.98
  },
  {
    "countryCode": "JO",
    "region": "Al 'Asimah",
    "iata": "ADJ",
    "icao": "OJAM",
    "name": "Amman Civil Airport (Marka International Airport)",
    "latitude": 31.9727,
    "longitude": 35.9916
  },
  {
    "countryCode": "US",
    "region": "Alaska",
    "iata": "ADK",
    "icao": "PADK",
    "name": "Adak Airport",
    "latitude": 51.878,
    "longitude": -176.646
  },
  {
    "countryCode": "AU",
    "region": "South Australia",
    "iata": "ADL",
    "icao": "YPAD",
    "name": "Adelaide Airport",
    "latitude": -34.945,
    "longitude": 138.531
  },
  {
    "countryCode": "US",
    "region": "Oklahoma",
    "iata": "ADM",
    "icao": "KADM",
    "name": "Ardmore Municipal Airport",
    "latitude": 34.303,
    "longitude": -97.0196
  },
  {
    "countryCode": "CO",
    "region": "Antioquia",
    "iata": "ADN",
    "icao": "SKAN",
    "name": "Andes Airport",
    "latitude": 5.69764,
    "longitude": -75.8804
  },
  {
    "countryCode": "AU",
    "region": "South Australia",
    "iata": "ADO",
    "icao": "YAMK",
    "name": "Andamooka Airport",
    "latitude": -30.4383,
    "longitude": 137.137
  },
  {
    "countryCode": "LK",
    "region": "Central Province",
    "iata": "ADP",
    "icao": "VCCG",
    "name": "Ampara Airport",
    "latitude": 7.33776,
    "longitude": 81.6259
  },
  {
    "countryCode": "US",
    "region": "Alaska",
    "iata": "ADQ",
    "icao": "PADQ",
    "name": "Kodiak Airport",
    "latitude": 57.75,
    "longitude": -152.494
  },
  {
    "countryCode": "US",
    "region": "Alaska",
    "iata": "ADR",
    "icao": "KPHH",
    "name": "Robert F. Swinnie Airport",
    "latitude": 33.4517,
    "longitude": -79.5262
  },
  {
    "countryCode": "US",
    "region": "Texas",
    "iata": "ADS",
    "icao": "KADS",
    "name": "Addison Airport",
    "latitude": 32.9686,
    "longitude": -96.8364
  },
  {
    "countryCode": "US",
    "region": "Oklahoma",
    "iata": "ADT",
    "icao": "KADH",
    "name": "Ada Municipal Airport",
    "latitude": 34.8043,
    "longitude": -96.6713
  },
  {
    "countryCode": "IR",
    "region": "Ardabil",
    "iata": "ADU",
    "icao": "OITL",
    "name": "Ardabil Airport",
    "latitude": 38.3257,
    "longitude": 48.4244
  },
  {
    "countryCode": "SD",
    "region": "East Darfur",
    "iata": "ADV",
    "icao": "",
    "name": "Ed Daein Airport",
    "latitude": 11.4023,
    "longitude": 26.1186
  },
  {
    "countryCode": "US",
    "region": "Maryland",
    "iata": "ADW",
    "icao": "KADW",
    "name": "Andrews Field (Andrews Air Force Base)",
    "latitude": 38.8108,
    "longitude": -76.867
  },
  {
    "countryCode": "GB",
    "region": "Scotland",
    "iata": "ADX",
    "icao": "EGQL",
    "name": "RAF Leuchars",
    "latitude": 56.3729,
    "longitude": -2.86844
  },
  {
    "countryCode": "ZA",
    "region": "Limpopo",
    "iata": "ADY",
    "icao": "FAAL",
    "name": "Alldays Airport",
    "latitude": -22.679,
    "longitude": 29.0555
  },
  {
    "countryCode": "CO",
    "region": "San Andres, Providencia y Santa Catalina",
    "iata": "ADZ",
    "icao": "SKSP",
    "name": "Gustavo Rojas Pinilla International Airport",
    "latitude": 12.5836,
    "longitude": -81.7112
  },
  {
    "countryCode": "KI",
    "region": "Gilbert Islands",
    "iata": "AEA",
    "icao": "NGTB",
    "name": "Abemama Atoll Airport",
    "latitude": 0.490833,
    "longitude": 173.829
  },
  {
    "countryCode": "CN",
    "region": "Guangxi",
    "iata": "AEB",
    "icao": "ZGBS",
    "name": "Baise Bama Airport",
    "latitude": 23.7206,
    "longitude": 106.96
  },
  {
    "countryCode": "SS",
    "region": "Upper Nile",
    "iata": "AEE",
    "icao": "",
    "name": "Adareil Airport",
    "latitude": 10.0536,
    "longitude": 32.9594
  },
  {
    "countryCode": "ID",
    "region": "Sulawesi Utara",
    "iata": "AEG",
    "icao": "WIME",
    "name": "Aek Godang Airport",
    "latitude": 1.4001,
    "longitude": 99.4305
  },
  {
    "countryCode": "TD",
    "region": "Ouaddai",
    "iata": "AEH",
    "icao": "FTTC",
    "name": "Abeche Airport",
    "latitude": 13.847,
    "longitude": 20.8443
  },
  {
    "countryCode": "PG",
    "region": "Morobe",
    "iata": "AEK",
    "icao": "AYAX",
    "name": "Aseki Airport",
    "latitude": -7.3508,
    "longitude": 146.194
  },
  {
    "countryCode": "US",
    "region": "Minnesota",
    "iata": "AEL",
    "icao": "KAEL",
    "name": "Albert Lea Municipal Airport",
    "latitude": 43.6815,
    "longitude": -93.3672
  },
  {
    "countryCode": "RU",
    "region": "Primorskiy kray",
    "iata": "AEM",
    "icao": "UHTG",
    "name": "Amgu Airport",
    "latitude": 45.8413,
    "longitude": 137.674
  },
  {
    "countryCode": "MR",
    "region": "Nouakchott Nord",
    "iata": "AEO",
    "icao": "GQNA",
    "name": "Aioun el Atrouss Airport",
    "latitude": 16.7113,
    "longitude": -9.63788
  },
  {
    "countryCode": "AR",
    "region": "Buenos Aires",
    "iata": "AEP",
    "icao": "SABE",
    "name": "Aeroparque Internacional Jorge Newbery",
    "latitude": -34.5589,
    "longitude": -58.4164
  },
  {
    "countryCode": "CN",
    "region": "Nei Mongol",
    "iata": "AEQ",
    "icao": "",
    "name": "Ar Horqin Airport",
    "latitude": 43.8704,
    "longitude": 120.16
  },
  {
    "countryCode": "RU",
    "region": "Krasnodarskiy kray",
    "iata": "AER",
    "icao": "URSS",
    "name": "Sochi International Airport",
    "latitude": 43.4499,
    "longitude": 39.9566
  },
  {
    "countryCode": "NO",
    "region": "More og Romsdal",
    "iata": "AES",
    "icao": "ENAL",
    "name": "Alesund Airport",
    "latitude": 62.5625,
    "longitude": 6.1197
  },
  {
    "countryCode": "US",
    "region": "Alaska",
    "iata": "AET",
    "icao": "PFAL",
    "name": "Allakaket Airport",
    "latitude": 66.5518,
    "longitude": -152.622
  },
  {
    "countryCode": "IR",
    "region": "Hormozgan",
    "iata": "AEU",
    "icao": "OIBA",
    "name": "Abu Musa Airport",
    "latitude": 25.8757,
    "longitude": 55.033
  },
  {
    "countryCode": "US",
    "region": "Louisiana",
    "iata": "AEX",
    "icao": "KAEX",
    "name": "Alexandria International Airport",
    "latitude": 31.3274,
    "longitude": -92.5498
  },
  {
    "countryCode": "IS",
    "region": "Nordurland eystra",
    "iata": "AEY",
    "icao": "BIAR",
    "name": "Akureyri Airport",
    "latitude": 65.66,
    "longitude": -18.0727
  },
  {
    "countryCode": "AR",
    "region": "Mendoza",
    "iata": "AFA",
    "icao": "SAMR",
    "name": "San Rafael Airport (Argentina)",
    "latitude": -34.5883,
    "longitude": -68.4039
  },
  {
    "countryCode": "ZA",
    "region": "Eastern Cape",
    "iata": "AFD",
    "icao": "FAPA",
    "name": "Port Alfred Airport",
    "latitude": -33.5542,
    "longitude": 26.8777
  },
  {
    "countryCode": "US",
    "region": "Colorado",
    "iata": "AFF",
    "icao": "KAFF",
    "name": "United States Air Force Academy Airfield",
    "latitude": 38.9697,
    "longitude": -104.813
  },
  {
    "countryCode": "CO",
    "region": "Antioquia",
    "iata": "AFI",
    "icao": "SKAM",
    "name": "Amalfi Airport (Colombia)",
    "latitude": 6.91667,
    "longitude": -75.0667
  },
  {
    "countryCode": "LK",
    "region": "Eastern Province",
    "iata": "AFK",
    "icao": "",
    "name": "Kondavattavan Tank Seaplane Base",
    "latitude": 7.284,
    "longitude": 81.644
  },
  {
    "countryCode": "BR",
    "region": "Mato Grosso",
    "iata": "AFL",
    "icao": "SBAT",
    "name": "Alta Floresta Airport",
    "latitude": -9.86639,
    "longitude": -56.105
  },
  {
    "countryCode": "US",
    "region": "New Hampshire",
    "iata": "AFN",
    "icao": "KAFN",
    "name": "Jaffrey Airport-Silver Ranch",
    "latitude": 42.8051,
    "longitude": -72.003
  },
  {
    "countryCode": "US",
    "region": "Wyoming",
    "iata": "AFO",
    "icao": "KAFO",
    "name": "Afton Municipal Airport",
    "latitude": 42.7112,
    "longitude": -110.942
  },
  {
    "countryCode": "PG",
    "region": "National Capital District (Port Moresby)",
    "iata": "AFR",
    "icao": "AYAF",
    "name": "Afore Airport",
    "latitude": -9.14222,
    "longitude": 148.391
  },
  {
    "countryCode": "UZ",
    "region": "Buxoro",
    "iata": "AFS",
    "icao": "UTSN",
    "name": "Zarafshan Airport",
    "latitude": 41.6139,
    "longitude": 64.2332
  },
  {
    "countryCode": "SB",
    "region": "Malaita",
    "iata": "AFT",
    "icao": "AGAF",
    "name": "Afutara Airport",
    "latitude": -9.19139,
    "longitude": 160.949
  },
  {
    "countryCode": "US",
    "region": "Texas",
    "iata": "AFW",
    "icao": "KAFW",
    "name": "Fort Worth Alliance Airport",
    "latitude": 32.9876,
    "longitude": -97.3188
  },
  {
    "countryCode": "TR",
    "region": "Afyonkarahisar",
    "iata": "AFY",
    "icao": "LTAH",
    "name": "Afyon Airport",
    "latitude": 38.7264,
    "longitude": 30.6011
  },
  {
    "countryCode": "IR",
    "region": "Khorasan-e Razavi",
    "iata": "AFZ",
    "icao": "OIMS",
    "name": "Sabzevar Airport",
    "latitude": 36.1681,
    "longitude": 57.5952
  },
  {
    "countryCode": "MA",
    "region": "Souss-Massa",
    "iata": "AGA",
    "icao": "GMAD",
    "name": "Agadir-Al Massira Airport",
    "latitude": 30.325,
    "longitude": -9.41307
  },
  {
    "countryCode": "DE",
    "region": "Bayern",
    "iata": "AGB",
    "icao": "EDMA",
    "name": "Augsburg Airport",
    "latitude": 48.4253,
    "longitude": 10.9317
  },
  {
    "countryCode": "US",
    "region": "Pennsylvania",
    "iata": "AGC",
    "icao": "KAGC",
    "name": "Allegheny County Airport",
    "latitude": 40.3544,
    "longitude": -79.9302
  },
  {
    "countryCode": "ID",
    "region": "Papua Barat",
    "iata": "AGD",
    "icao": "WASG",
    "name": "Anggi Airport",
    "latitude": -1.3858,
    "longitude": 133.874
  },
  {
    "countryCode": "DE",
    "region": "Niedersachsen",
    "iata": "AGE",
    "icao": "EDWG",
    "name": "Wangerooge Airport",
    "latitude": 53.7828,
    "longitude": 7.91389
  },
  {
    "countryCode": "FR",
    "region": "Nouvelle-Aquitaine",
    "iata": "AGF",
    "icao": "LFBA",
    "name": "Agen La Garenne Airport",
    "latitude": 44.1747,
    "longitude": 0.590556
  },
  {
    "countryCode": "PG",
    "region": "East Sepik",
    "iata": "AGG",
    "icao": "",
    "name": "Angoram Airport",
    "latitude": -4.05583,
    "longitude": 144.074
  },
  {
    "countryCode": "SE",
    "region": "Skane lan",
    "iata": "AGH",
    "icao": "ESTA",
    "name": "Angelholm-Helsingborg Airport",
    "latitude": 56.2961,
    "longitude": 12.8471
  },
  {
    "countryCode": "SR",
    "region": "Nickerie",
    "iata": "AGI",
    "icao": "SMWA",
    "name": "Wageningen Airstrip",
    "latitude": 5.84113,
    "longitude": -56.6733
  },
  {
    "countryCode": "JP",
    "region": "Okinawa",
    "iata": "AGJ",
    "icao": "RORA",
    "name": "Aguni Airport",
    "latitude": 26.5925,
    "longitude": 127.241
  },
  {
    "countryCode": "PG",
    "region": "Southern Highlands",
    "iata": "AGK",
    "icao": "",
    "name": "Kagua Airport",
    "latitude": -6.39639,
    "longitude": 143.854
  },
  {
    "countryCode": "PG",
    "region": "Northern",
    "iata": "AGL",
    "icao": "AYWG",
    "name": "Wanigela Airport",
    "latitude": -9.3375,
    "longitude": 149.156
  },
  {
    "countryCode": "GL",
    "region": "Kommunegarfik Sermersooq",
    "iata": "AGM",
    "icao": "",
    "name": "Tasiilaq Heliport",
    "latitude": 65.6122,
    "longitude": -37.6184
  },
  {
    "countryCode": "US",
    "region": "Alaska",
    "iata": "AGN",
    "icao": "PAGN",
    "name": "Angoon Seaplane Base",
    "latitude": 57.5036,
    "longitude": -134.585
  },
  {
    "countryCode": "US",
    "region": "Arkansas",
    "iata": "AGO",
    "icao": "KAGO",
    "name": "Magnolia Municipal Airport",
    "latitude": 33.228,
    "longitude": -93.217
  },
  {
    "countryCode": "ES",
    "region": "Andalucia",
    "iata": "AGP",
    "icao": "LEMG",
    "name": "Malaga Airport",
    "latitude": 36.6749,
    "longitude": -4.49911
  },
  {
    "countryCode": "GR",
    "region": "Dytiki Ellada",
    "iata": "AGQ",
    "icao": "LGAG",
    "name": "Agrinion Airport",
    "latitude": 38.602,
    "longitude": 21.3512
  },
  {
    "countryCode": "IN",
    "region": "Uttar Pradesh",
    "iata": "AGR",
    "icao": "VIAG",
    "name": "Agra Airport",
    "latitude": 27.1558,
    "longitude": 77.9609
  },
  {
    "countryCode": "US",
    "region": "Georgia",
    "iata": "AGS",
    "icao": "KAGS",
    "name": "Augusta Regional Airport at Bush Field",
    "latitude": 33.3699,
    "longitude": -81.9645
  },
  {
    "countryCode": "PY",
    "region": "Alto Parana",
    "iata": "AGT",
    "icao": "SGES",
    "name": "Guarani  International Airport",
    "latitude": -25.4545,
    "longitude": -54.8427
  },
  {
    "countryCode": "MX",
    "region": "Aguascalientes",
    "iata": "AGU",
    "icao": "MMAS",
    "name": "Lic. Jesus Teran Peredo International Airport",
    "latitude": 21.7056,
    "longitude": -102.318
  },
  {
    "countryCode": "VE",
    "region": "Portuguesa",
    "iata": "AGV",
    "icao": "SVAC",
    "name": "Oswaldo Guevara Mujica Airport",
    "latitude": 9.55338,
    "longitude": -69.2379
  },
  {
    "countryCode": "AU",
    "region": "Queensland",
    "iata": "AGW",
    "icao": "",
    "name": "Agnew Airport",
    "latitude": -12.1456,
    "longitude": 142.149
  },
  {
    "countryCode": "IN",
    "region": "Lakshadweep",
    "iata": "AGX",
    "icao": "VOAT",
    "name": "Agatti Aerodrome",
    "latitude": 10.8237,
    "longitude": 72.176
  },
  {
    "countryCode": "ZA",
    "region": "Northern Cape",
    "iata": "AGZ",
    "icao": "FAAG",
    "name": "Aggeneys Airport",
    "latitude": -29.2818,
    "longitude": 18.8139
  },
  {
    "countryCode": "SA",
    "region": "Asir",
    "iata": "AHB",
    "icao": "OEAB",
    "name": "Abha Regional Airport",
    "latitude": 18.2404,
    "longitude": 42.6566
  },
  {
    "countryCode": "US",
    "region": "California",
    "iata": "AHC",
    "icao": "KAHC",
    "name": "Amedee Army Airfield",
    "latitude": 40.2662,
    "longitude": -120.153
  },
  {
    "countryCode": "US",
    "region": "Oklahoma",
    "iata": "AHD",
    "icao": "",
    "name": "Ardmore Downtown Executive Airport",
    "latitude": 34.147,
    "longitude": -97.1227
  },
  {
    "countryCode": "PF",
    "region": "Iles Tuamotu-Gambier",
    "iata": "AHE",
    "icao": "NTHE",
    "name": "Ahe Airport",
    "latitude": -14.4281,
    "longitude": -146.257
  },
  {
    "countryCode": "US",
    "region": "Nebraska",
    "iata": "AHF",
    "icao": "",
    "name": "Arapahoe Municipal Airport",
    "latitude": 40.3395,
    "longitude": -99.9065
  },
  {
    "countryCode": "US",
    "region": "Wisconsin",
    "iata": "AHH",
    "icao": "KAHH",
    "name": "Amery Municipal Airport",
    "latitude": 45.2811,
    "longitude": -92.3754
  },
  {
    "countryCode": "ID",
    "region": "Maluku",
    "iata": "AHI",
    "icao": "WAPA",
    "name": "Amahai Airport",
    "latitude": -3.348,
    "longitude": 128.926
  },
  {
    "countryCode": "CN",
    "region": "Sichuan",
    "iata": "AHJ",
    "icao": "ZUHY",
    "name": "Hongyuan Airport",
    "latitude": 32.5315,
    "longitude": 102.352
  },
  {
    "countryCode": "GY",
    "region": "Upper Takutu-Upper Essequibo",
    "iata": "AHL",
    "icao": "SYAH",
    "name": "Aishalton Airport",
    "latitude": 2.48653,
    "longitude": -59.3134
  },
  {
    "countryCode": "US",
    "region": "Oregon",
    "iata": "AHM",
    "icao": "",
    "name": "Ashland Municipal Airport",
    "latitude": 42.1903,
    "longitude": -122.661
  },
  {
    "countryCode": "US",
    "region": "Georgia",
    "iata": "AHN",
    "icao": "KAHN",
    "name": "Athens Ben Epps Airport",
    "latitude": 33.9486,
    "longitude": -83.3263
  },
  {
    "countryCode": "IT",
    "region": "Sardegna",
    "iata": "AHO",
    "icao": "LIEA",
    "name": "Alghero-Fertilia Airport",
    "latitude": 40.6321,
    "longitude": 8.29077
  },
  {
    "countryCode": "HN",
    "region": "Gracias a Dios",
    "iata": "AHS",
    "icao": "MHAH",
    "name": "Ahuas Airport",
    "latitude": 15.4722,
    "longitude": -84.3522
  },
  {
    "countryCode": "MA",
    "region": "Tanger-Tetouan-Al Hoceima",
    "iata": "AHU",
    "icao": "GMTA",
    "name": "Cherif Al Idrissi Airport",
    "latitude": 35.1771,
    "longitude": -3.83952
  },
  {
    "countryCode": "MG",
    "region": "Antananarivo",
    "iata": "AHY",
    "icao": "",
    "name": "Ambatolahy Airport",
    "latitude": -20.0158,
    "longitude": 45.535
  },
  {
    "countryCode": "FR",
    "region": "Auvergne-Rhone-Alpes",
    "iata": "AHZ",
    "icao": "LFHU",
    "name": "Alpe d'Huez Airport",
    "latitude": 45.0883,
    "longitude": 6.08472
  },
  {
    "countryCode": "US",
    "region": "Nebraska",
    "iata": "AIA",
    "icao": "KAIA",
    "name": "Alliance Municipal Airport",
    "latitude": 42.0532,
    "longitude": -102.804
  },
  {
    "countryCode": "MH",
    "region": "Ailinglaplap",
    "iata": "AIC",
    "icao": "",
    "name": "Ailinglaplap Airok Airport",
    "latitude": 7.27942,
    "longitude": 168.826
  },
  {
    "countryCode": "US",
    "region": "Indiana",
    "iata": "AID",
    "icao": "KAID",
    "name": "Anderson Municipal Airport (Darlington Field)",
    "latitude": 40.1086,
    "longitude": -85.613
  },
  {
    "countryCode": "PG",
    "region": "Gulf",
    "iata": "AIE",
    "icao": "AYAO",
    "name": "Aiome Airport",
    "latitude": -5.1457,
    "longitude": 144.731
  },
  {
    "countryCode": "BR",
    "region": "Sao Paulo",
    "iata": "AIF",
    "icao": "SBAS",
    "name": "Assis Airport",
    "latitude": -22.64,
    "longitude": -50.4531
  },
  {
    "countryCode": "CF",
    "region": "Haute-Kotto",
    "iata": "AIG",
    "icao": "FEFY",
    "name": "Yalinga Airport",
    "latitude": 6.52,
    "longitude": 23.26
  },
  {
    "countryCode": "PG",
    "region": "Western",
    "iata": "AIH",
    "icao": "AYAK",
    "name": "Aiambak Airport",
    "latitude": -7.34278,
    "longitude": 141.268
  },
  {
    "countryCode": "DJ",
    "region": "Ali Sabieh",
    "iata": "AII",
    "icao": "HDAS",
    "name": "Ali-Sabieh Airport",
    "latitude": 11.1469,
    "longitude": 42.72
  },
  {
    "countryCode": "US",
    "region": "South Carolina",
    "iata": "AIK",
    "icao": "KAIK",
    "name": "Aiken Municipal Airport",
    "latitude": 33.6494,
    "longitude": -81.685
  },
  {
    "countryCode": "PA",
    "region": "Darien",
    "iata": "AIL",
    "icao": "",
    "name": "Ailigandi Airport",
    "latitude": 9.2226,
    "longitude": -78.0236
  },
  {
    "countryCode": "MH",
    "region": "Ailuk",
    "iata": "AIM",
    "icao": "",
    "name": "Ailuk Airport",
    "latitude": 10.2168,
    "longitude": 169.983
  },
  {
    "countryCode": "US",
    "region": "Alaska",
    "iata": "AIN",
    "icao": "PAWI",
    "name": "Wainwright Airport",
    "latitude": 70.638,
    "longitude": -159.995
  },
  {
    "countryCode": "US",
    "region": "Iowa",
    "iata": "AIO",
    "icao": "KAIO",
    "name": "Atlantic Municipal Airport",
    "latitude": 41.4073,
    "longitude": -95.0469
  },
  {
    "countryCode": "IN",
    "region": "Punjab",
    "iata": "AIP",
    "icao": "VIAX",
    "name": "Adampur Airport",
    "latitude": 31.4331,
    "longitude": 75.7606
  },
  {
    "countryCode": "BR",
    "region": "Mato Grosso",
    "iata": "AIR",
    "icao": "SSOU",
    "name": "Aripuana Airport",
    "latitude": -10.1883,
    "longitude": -59.4573
  },
  {
    "countryCode": "KI",
    "region": "Gilbert Islands",
    "iata": "AIS",
    "icao": "NGTR",
    "name": "Arorae Island Airport",
    "latitude": -2.61611,
    "longitude": 176.803
  },
  {
    "countryCode": "CK",
    "region": "Cook Islands",
    "iata": "AIT",
    "icao": "NCAI",
    "name": "Aitutaki Airport",
    "latitude": -18.8309,
    "longitude": -159.764
  },
  {
    "countryCode": "CK",
    "region": "Cook Islands",
    "iata": "AIU",
    "icao": "NCAT",
    "name": "Enua Airport",
    "latitude": -19.9678,
    "longitude": -158.119
  },
  {
    "countryCode": "US",
    "region": "Alabama",
    "iata": "AIV",
    "icao": "KAIV",
    "name": "George Downer Airport",
    "latitude": 33.1065,
    "longitude": -88.1978
  },
  {
    "countryCode": "NA",
    "region": "Karas",
    "iata": "AIW",
    "icao": "FYAA",
    "name": "Ai-Ais Airport",
    "latitude": -27.995,
    "longitude": 17.5966
  },
  {
    "countryCode": "US",
    "region": "Missouri",
    "iata": "AIZ",
    "icao": "KAIZ",
    "name": "Lee C. Fine Memorial Airport",
    "latitude": 38.096,
    "longitude": -92.5495
  },
  {
    "countryCode": "FR",
    "region": "Corse",
    "iata": "AJA",
    "icao": "LFKJ",
    "name": "Ajaccio Napoleon Bonaparte Airport",
    "latitude": 41.9236,
    "longitude": 8.80292
  },
  {
    "countryCode": "SA",
    "region": "Al Jawf",
    "iata": "AJF",
    "icao": "OESK",
    "name": "Al-Jawf Domestic Airport",
    "latitude": 29.7851,
    "longitude": 40.1
  },
  {
    "countryCode": "TR",
    "region": "Agri",
    "iata": "AJI",
    "icao": "LTCO",
    "name": "Agri Airport",
    "latitude": 39.6545,
    "longitude": 43.026
  },
  {
    "countryCode": "MR",
    "region": "Inchiri",
    "iata": "AJJ",
    "icao": "GQNJ",
    "name": "Akjoujt Airport",
    "latitude": 19.733,
    "longitude": -14.3832
  },
  {
    "countryCode": "IR",
    "region": "Markazi",
    "iata": "AJK",
    "icao": "OIHR",
    "name": "Arak Airport",
    "latitude": 34.1381,
    "longitude": 49.8473
  },
  {
    "countryCode": "IN",
    "region": "Mizoram",
    "iata": "AJL",
    "icao": "VELP",
    "name": "Lengpui Airport",
    "latitude": 23.8406,
    "longitude": 92.6197
  },
  {
    "countryCode": "KM",
    "region": "Anjouan",
    "iata": "AJN",
    "icao": "FMCV",
    "name": "Ouani Airport",
    "latitude": -12.1317,
    "longitude": 44.4303
  },
  {
    "countryCode": "SE",
    "region": "Norrbottens lan",
    "iata": "AJR",
    "icao": "ESNX",
    "name": "Arvidsjaur Airport",
    "latitude": 65.5903,
    "longitude": 19.2819
  },
  {
    "countryCode": "MX",
    "region": "Baja California Sur",
    "iata": "AJS",
    "icao": "MX86",
    "name": "Punta Abreojos Airstrip",
    "latitude": 26.7272,
    "longitude": -113.559
  },
  {
    "countryCode": "BR",
    "region": "Sergipe",
    "iata": "AJU",
    "icao": "SBAR",
    "name": "Santa Maria Airport (Sergipe)",
    "latitude": -10.984,
    "longitude": -37.0703
  },
  {
    "countryCode": "NE",
    "region": "Agadez",
    "iata": "AJY",
    "icao": "DRZA",
    "name": "Mano Dayak International Airport",
    "latitude": 16.966,
    "longitude": 8.00011
  },
  {
    "countryCode": "CN",
    "region": "Shaanxi",
    "iata": "AKA",
    "icao": "ZLAK",
    "name": "Ankang Wulipu Airport",
    "latitude": 32.7081,
    "longitude": 108.931
  },
  {
    "countryCode": "US",
    "region": "Alaska",
    "iata": "AKB",
    "icao": "PAAK",
    "name": "Atka Airport",
    "latitude": 52.2203,
    "longitude": -174.206
  },
  {
    "countryCode": "US",
    "region": "Ohio",
    "iata": "AKC",
    "icao": "KAKR",
    "name": "Akron Fulton International Airport",
    "latitude": 41.0375,
    "longitude": -81.4669
  },
  {
    "countryCode": "IN",
    "region": "Maharashtra",
    "iata": "AKD",
    "icao": "VAAK",
    "name": "Akola Airport",
    "latitude": 20.699,
    "longitude": 77.0586
  },
  {
    "countryCode": "GA",
    "region": "Haut-Ogooue",
    "iata": "AKE",
    "icao": "FOGA",
    "name": "Akieni Airport",
    "latitude": -1.13967,
    "longitude": 13.9036
  },
  {
    "countryCode": "LY",
    "region": "Al Kufrah",
    "iata": "AKF",
    "icao": "HLKF",
    "name": "Kufra Airport",
    "latitude": 24.1787,
    "longitude": 23.314
  },
  {
    "countryCode": "PG",
    "region": "Western",
    "iata": "AKG",
    "icao": "AYGU",
    "name": "Anguganak Airport",
    "latitude": -3.5605,
    "longitude": 142.217
  },
  {
    "countryCode": "SA",
    "region": "Ar Riyad",
    "iata": "AKH",
    "icao": "OEPS",
    "name": "Prince Sultan Air Base",
    "latitude": 24.0627,
    "longitude": 47.5805
  },
  {
    "countryCode": "US",
    "region": "Alaska",
    "iata": "AKI",
    "icao": "PFAK",
    "name": "Akiak Airport",
    "latitude": 60.9029,
    "longitude": -161.231
  },
  {
    "countryCode": "JP",
    "region": "Hokkaido",
    "iata": "AKJ",
    "icao": "RJEC",
    "name": "Asahikawa Airport",
    "latitude": 43.6708,
    "longitude": 142.447
  },
  {
    "countryCode": "US",
    "region": "Alaska",
    "iata": "AKK",
    "icao": "PAKH",
    "name": "Akhiok Airport",
    "latitude": 56.9387,
    "longitude": -154.183
  },
  {
    "countryCode": "NZ",
    "region": "Auckland",
    "iata": "AKL",
    "icao": "NZAA",
    "name": "Auckland Airport",
    "latitude": -37.0081,
    "longitude": 174.792
  },
  {
    "countryCode": "TD",
    "region": "Salamat",
    "iata": "AKM",
    "icao": "",
    "name": "Zakouma Airport",
    "latitude": 10.8903,
    "longitude": 19.8172
  },
  {
    "countryCode": "US",
    "region": "Alaska",
    "iata": "AKN",
    "icao": "PAKN",
    "name": "King Salmon Airport",
    "latitude": 58.6768,
    "longitude": -156.649
  },
  {
    "countryCode": "US",
    "region": "Colorado",
    "iata": "AKO",
    "icao": "KAKO",
    "name": "Colorado Plains Regional Airport",
    "latitude": 40.1756,
    "longitude": -103.222
  },
  {
    "countryCode": "US",
    "region": "Alaska",
    "iata": "AKP",
    "icao": "PAKP",
    "name": "Anaktuvuk Pass Airport",
    "latitude": 68.1336,
    "longitude": -151.743
  },
  {
    "countryCode": "ID",
    "region": "Lampung",
    "iata": "AKQ",
    "icao": "WIAG",
    "name": "Gunung Batin Airport",
    "latitude": -4.61114,
    "longitude": 105.232
  },
  {
    "countryCode": "NG",
    "region": "Ondo",
    "iata": "AKR",
    "icao": "DNAK",
    "name": "Akure Airport",
    "latitude": 7.24674,
    "longitude": 5.30101
  },
  {
    "countryCode": "SB",
    "region": "Malaita",
    "iata": "AKS",
    "icao": "AGGA",
    "name": "Auki Gwaunaru'u Airport",
    "latitude": -8.70257,
    "longitude": 160.682
  },
  {
    "countryCode": "CY",
    "region": "Lemesos",
    "iata": "AKT",
    "icao": "LCRA",
    "name": "RAF Akrotiri",
    "latitude": 34.5904,
    "longitude": 32.9879
  },
  {
    "countryCode": "CN",
    "region": "Xinjiang",
    "iata": "AKU",
    "icao": "ZWAK",
    "name": "Aksu Airport",
    "latitude": 41.2625,
    "longitude": 80.2917
  },
  {
    "countryCode": "CA",
    "region": "Quebec",
    "iata": "AKV",
    "icao": "CYKO",
    "name": "Akulivik Airport",
    "latitude": 60.8186,
    "longitude": -78.1486
  },
  {
    "countryCode": "IR",
    "region": "Khuzestan",
    "iata": "AKW",
    "icao": "OIAG",
    "name": "Aghajari Airport",
    "latitude": 30.7444,
    "longitude": 49.6772
  },
  {
    "countryCode": "KZ",
    "region": "Aqtobe oblysy",
    "iata": "AKX",
    "icao": "UATT",
    "name": "Aktobe Airport",
    "latitude": 50.2458,
    "longitude": 57.2067
  },
  {
    "countryCode": "MM",
    "region": "Rakhine",
    "iata": "AKY",
    "icao": "VYSW",
    "name": "Sittwe Airport",
    "latitude": 20.1327,
    "longitude": 92.8726
  },
  {
    "countryCode": "KZ",
    "region": "Almaty",
    "iata": "ALA",
    "icao": "UAAA",
    "name": "Almaty International Airport",
    "latitude": 43.3521,
    "longitude": 77.0405
  },
  {
    "countryCode": "US",
    "region": "New York",
    "iata": "ALB",
    "icao": "KALB",
    "name": "Albany International Airport",
    "latitude": 42.7483,
    "longitude": -73.8017
  },
  {
    "countryCode": "ES",
    "region": "Valenciana, Comunidad",
    "iata": "ALC",
    "icao": "LEAL",
    "name": "Alicante-Elche Airport",
    "latitude": 38.2822,
    "longitude": -0.558156
  },
  {
    "countryCode": "PE",
    "region": "Ucayali",
    "iata": "ALD",
    "icao": "SPAR",
    "name": "Alerta Airport",
    "latitude": -11.683,
    "longitude": -69.333
  },
  {
    "countryCode": "US",
    "region": "Texas",
    "iata": "ALE",
    "icao": "",
    "name": "Alpine-Casparis Municipal Airport",
    "latitude": 30.3842,
    "longitude": -103.684
  },
  {
    "countryCode": "NO",
    "region": "Finnmark",
    "iata": "ALF",
    "icao": "ENAT",
    "name": "Alta Airport",
    "latitude": 69.9761,
    "longitude": 23.3717
  },
  {
    "countryCode": "DZ",
    "region": "Alger",
    "iata": "ALG",
    "icao": "DAAG",
    "name": "Houari Boumediene Airport",
    "latitude": 36.691,
    "longitude": 3.21541
  },
  {
    "countryCode": "AU",
    "region": "Western Australia",
    "iata": "ALH",
    "icao": "YABA",
    "name": "Albany Airport",
    "latitude": -34.9433,
    "longitude": 117.809
  },
  {
    "countryCode": "US",
    "region": "Texas",
    "iata": "ALI",
    "icao": "KALI",
    "name": "Alice International Airport",
    "latitude": 27.7409,
    "longitude": -98.0269
  },
  {
    "countryCode": "ZA",
    "region": "Northern Cape",
    "iata": "ALJ",
    "icao": "FAAB",
    "name": "Alexander Bay Airport",
    "latitude": -28.575,
    "longitude": 16.5333
  },
  {
    "countryCode": "ET",
    "region": "Oromiya",
    "iata": "ALK",
    "icao": "",
    "name": "Asella Airport",
    "latitude": 7.96213,
    "longitude": 39.1283
  },
  {
    "countryCode": "IT",
    "region": "Liguria",
    "iata": "ALL",
    "icao": "LIMG",
    "name": "Albenga Airport",
    "latitude": 44.0506,
    "longitude": 8.12743
  },
  {
    "countryCode": "US",
    "region": "New Mexico",
    "iata": "ALM",
    "icao": "KALM",
    "name": "Alamogordo-White Sands Regional Airport",
    "latitude": 32.8399,
    "longitude": -105.991
  },
  {
    "countryCode": "US",
    "region": "Illinois",
    "iata": "ALN",
    "icao": "KALN",
    "name": "St. Louis Regional Airport",
    "latitude": 38.8903,
    "longitude": -90.046
  },
  {
    "countryCode": "US",
    "region": "Iowa",
    "iata": "ALO",
    "icao": "KALO",
    "name": "Waterloo Regional Airport",
    "latitude": 42.5571,
    "longitude": -92.4003
  },
  {
    "countryCode": "SY",
    "region": "Halab",
    "iata": "ALP",
    "icao": "OSAP",
    "name": "Aleppo International Airport",
    "latitude": 36.1807,
    "longitude": 37.2244
  },
  {
    "countryCode": "BR",
    "region": "Rio Grande do Sul",
    "iata": "ALQ",
    "icao": "SSLT",
    "name": "Alegrete Airport",
    "latitude": -29.8127,
    "longitude": -55.8934
  },
  {
    "countryCode": "NZ",
    "region": "Otago",
    "iata": "ALR",
    "icao": "NZLX",
    "name": "Alexandra Aerodrome",
    "latitude": -45.2117,
    "longitude": 169.373
  },
  {
    "countryCode": "US",
    "region": "Colorado",
    "iata": "ALS",
    "icao": "KALS",
    "name": "San Luis Valley Regional Airport",
    "latitude": 37.4349,
    "longitude": -105.867
  },
  {
    "countryCode": "BR",
    "region": "Para",
    "iata": "ALT",
    "icao": "",
    "name": "Alenquer Airport",
    "latitude": -1.917,
    "longitude": -54.7231
  },
  {
    "countryCode": "SO",
    "region": "Bari",
    "iata": "ALU",
    "icao": "HCMA",
    "name": "Alula Airport",
    "latitude": 11.9582,
    "longitude": 50.748
  },
  {
    "countryCode": "US",
    "region": "Washington",
    "iata": "ALW",
    "icao": "KALW",
    "name": "Walla Walla Regional Airport",
    "latitude": 46.0949,
    "longitude": -118.288
  },
  {
    "countryCode": "US",
    "region": "Alabama",
    "iata": "ALX",
    "icao": "KALX",
    "name": "Thomas C. Russell Field",
    "latitude": 32.9147,
    "longitude": -85.963
  },
  {
    "countryCode": "EG",
    "region": "Al Iskandariyah",
    "iata": "ALY",
    "icao": "HEAX",
    "name": "El Nouzha Airport",
    "latitude": 31.1839,
    "longitude": 29.9489
  },
  {
    "countryCode": "US",
    "region": "Alaska",
    "iata": "ALZ",
    "icao": "",
    "name": "Alitak Seaplane Base",
    "latitude": 56.8995,
    "longitude": -154.248
  },
  {
    "countryCode": "US",
    "region": "Texas",
    "iata": "AMA",
    "icao": "KAMA",
    "name": "Rick Husband Amarillo International Airport",
    "latitude": 35.2194,
    "longitude": -101.706
  },
  {
    "countryCode": "IR",
    "region": "Sistan va Baluchestan",
    "iata": "AMB",
    "icao": "FMNE",
    "name": "Ambilobe Airport",
    "latitude": -13.1884,
    "longitude": 48.988
  },
  {
    "countryCode": "TD",
    "region": "Salamat",
    "iata": "AMC",
    "icao": "FTTN",
    "name": "Am Timan Airport",
    "latitude": 11.034,
    "longitude": 20.274
  },
  {
    "countryCode": "IN",
    "region": "Gujarat",
    "iata": "AMD",
    "icao": "VAAH",
    "name": "Sardar Vallabhbhai Patel International Airport",
    "latitude": 23.0772,
    "longitude": 72.6347
  },
  {
    "countryCode": "MZ",
    "region": "Nampula",
    "iata": "AME",
    "icao": "",
    "name": "Alto Molocue Airport",
    "latitude": -15.6103,
    "longitude": 37.6814
  },
  {
    "countryCode": "PG",
    "region": "Western",
    "iata": "AMF",
    "icao": "AYAA",
    "name": "Ama Airport",
    "latitude": -4.10111,
    "longitude": 141.67
  },
  {
    "countryCode": "PG",
    "region": "Western Highlands",
    "iata": "AMG",
    "icao": "",
    "name": "Amboin Airport",
    "latitude": -4.6,
    "longitude": 143.5
  },
  {
    "countryCode": "ET",
    "region": "YeDebub Biheroch Bihereseboch na Hizboch",
    "iata": "AMH",
    "icao": "HAAM",
    "name": "Arba Minch Airport",
    "latitude": 6.03939,
    "longitude": 37.5905
  },
  {
    "countryCode": "ID",
    "region": "West Nusa Tenggara",
    "iata": "AMI",
    "icao": "WADA",
    "name": "Selaparang Airport",
    "latitude": -8.56056,
    "longitude": 116.094
  },
  {
    "countryCode": "BR",
    "region": "Minas Gerais",
    "iata": "AMJ",
    "icao": "SNAR",
    "name": "Almenara Airport",
    "latitude": -16.1839,
    "longitude": -40.6672
  },
  {
    "countryCode": "US",
    "region": "Colorado",
    "iata": "AMK",
    "icao": "",
    "name": "Animas Air Park",
    "latitude": 37.2032,
    "longitude": -107.869
  },
  {
    "countryCode": "PA",
    "region": "Chiriqui",
    "iata": "AML",
    "icao": "",
    "name": "Puerto Armuelles Airport",
    "latitude": 8.26806,
    "longitude": -82.8649
  },
  {
    "countryCode": "JO",
    "region": "Madaba",
    "iata": "AMM",
    "icao": "OJAI",
    "name": "Queen Alia International Airport",
    "latitude": 31.7226,
    "longitude": 35.9932
  },
  {
    "countryCode": "US",
    "region": "Michigan",
    "iata": "AMN",
    "icao": "KAMN",
    "name": "Gratiot Community Airport",
    "latitude": 43.3221,
    "longitude": -84.688
  },
  {
    "countryCode": "TD",
    "region": "Kanem",
    "iata": "AMO",
    "icao": "FTTU",
    "name": "Mao Airport",
    "latitude": 14.1456,
    "longitude": 15.3144
  },
  {
    "countryCode": "MG",
    "region": "Toliara",
    "iata": "AMP",
    "icao": "FMSY",
    "name": "Ampanihy Airport",
    "latitude": -24.6997,
    "longitude": 44.7342
  },
  {
    "countryCode": "ID",
    "region": "Maluku",
    "iata": "AMQ",
    "icao": "WAPP",
    "name": "Pattimura Airport",
    "latitude": -3.71026,
    "longitude": 128.089
  },
  {
    "countryCode": "NL",
    "region": "Noord-Holland",
    "iata": "AMS",
    "icao": "EHAM",
    "name": "Amsterdam Airport Schiphol",
    "latitude": 52.3086,
    "longitude": 4.76389
  },
  {
    "countryCode": "AU",
    "region": "South Australia",
    "iata": "AMT",
    "icao": "YAMT",
    "name": "Amata Airport",
    "latitude": -26.1083,
    "longitude": 131.207
  },
  {
    "countryCode": "PG",
    "region": "Western",
    "iata": "AMU",
    "icao": "AYAM",
    "name": "Amanab Airport",
    "latitude": -3.586,
    "longitude": 141.214
  },
  {
    "countryCode": "RU",
    "region": "Nenetskiy avtonomnyy okrug",
    "iata": "AMV",
    "icao": "ULDD",
    "name": "Amderma Airport",
    "latitude": 69.7633,
    "longitude": 61.5564
  },
  {
    "countryCode": "US",
    "region": "Iowa",
    "iata": "AMW",
    "icao": "KAMW",
    "name": "Ames Municipal Airport",
    "latitude": 41.992,
    "longitude": -93.6218
  },
  {
    "countryCode": "AU",
    "region": "Northern Territory",
    "iata": "AMX",
    "icao": "",
    "name": "Ammaroo Airport",
    "latitude": -21.7383,
    "longitude": 135.242
  },
  {
    "countryCode": "MG",
    "region": "Mahajanga",
    "iata": "AMY",
    "icao": "",
    "name": "Ambatomainty Airport",
    "latitude": -17.6867,
    "longitude": 45.6239
  },
  {
    "countryCode": "NZ",
    "region": "Auckland",
    "iata": "AMZ",
    "icao": "NZAR",
    "name": "Ardmore Airport",
    "latitude": -37.0297,
    "longitude": 174.973
  },
  {
    "countryCode": "KE",
    "region": "Nyamira",
    "iata": "ANA",
    "icao": "",
    "name": "Angama Airstrip",
    "latitude": -1.27156,
    "longitude": 34.9555
  },
  {
    "countryCode": "US",
    "region": "Alabama",
    "iata": "ANB",
    "icao": "KANB",
    "name": "Anniston Regional Airport",
    "latitude": 33.5882,
    "longitude": -85.8581
  },
  {
    "countryCode": "US",
    "region": "Alaska",
    "iata": "ANC",
    "icao": "PANC",
    "name": "Ted Stevens Anchorage International Airport",
    "latitude": 61.1744,
    "longitude": -149.996
  },
  {
    "countryCode": "US",
    "region": "South Carolina",
    "iata": "AND",
    "icao": "KAND",
    "name": "Anderson Regional Airport",
    "latitude": 34.4946,
    "longitude": -82.7094
  },
  {
    "countryCode": "FR",
    "region": "Pays-de-la-Loire",
    "iata": "ANE",
    "icao": "LFJR",
    "name": "Angers - Loire Airport",
    "latitude": 47.5603,
    "longitude": -0.312222
  },
  {
    "countryCode": "CL",
    "region": "Antofagasta",
    "iata": "ANF",
    "icao": "SCFA",
    "name": "Cerro Moreno International Airport",
    "latitude": -23.4445,
    "longitude": -70.4451
  },
  {
    "countryCode": "FR",
    "region": "Nouvelle-Aquitaine",
    "iata": "ANG",
    "icao": "LFBU",
    "name": "Angouleme - Cognac International Airport",
    "latitude": 45.7292,
    "longitude": 0.221456
  },
  {
    "countryCode": "US",
    "region": "Alaska",
    "iata": "ANI",
    "icao": "PANI",
    "name": "Aniak Airport",
    "latitude": 61.5816,
    "longitude": -159.543
  },
  {
    "countryCode": "CG",
    "region": "Brazzaville",
    "iata": "ANJ",
    "icao": "FCBZ",
    "name": "Zanaga Airport",
    "latitude": -2.85,
    "longitude": 13.817
  },
  {
    "countryCode": "TR",
    "region": "Ankara",
    "iata": "ANK",
    "icao": "LTAD",
    "name": "Etimesgut Air Base",
    "latitude": 39.9498,
    "longitude": 32.6886
  },
  {
    "countryCode": "AO",
    "region": "Bie",
    "iata": "ANL",
    "icao": "",
    "name": "Andulo Airport",
    "latitude": -11.4723,
    "longitude": 16.7109
  },
  {
    "countryCode": "IR",
    "region": "Sistan va Baluchestan",
    "iata": "ANM",
    "icao": "FMNH",
    "name": "Antsirabato Airport",
    "latitude": -14.9994,
    "longitude": 50.3202
  },
  {
    "countryCode": "US",
    "region": "Alaska",
    "iata": "ANN",
    "icao": "PANT",
    "name": "Annette Island Airport",
    "latitude": 55.0424,
    "longitude": -131.572
  },
  {
    "countryCode": "MZ",
    "region": "Nampula",
    "iata": "ANO",
    "icao": "FQAG",
    "name": "Angoche Airport",
    "latitude": -16.1819,
    "longitude": 39.9452
  },
  {
    "countryCode": "US",
    "region": "Maryland",
    "iata": "ANP",
    "icao": "KANP",
    "name": "Lee Airport",
    "latitude": 38.9429,
    "longitude": -76.5684
  },
  {
    "countryCode": "US",
    "region": "Indiana",
    "iata": "ANQ",
    "icao": "KANQ",
    "name": "Tri-State Steuben County Airport",
    "latitude": 41.6397,
    "longitude": -85.0835
  },
  {
    "countryCode": "BE",
    "region": "Antwerpen",
    "iata": "ANR",
    "icao": "EBAW",
    "name": "Antwerp International Airport",
    "latitude": 51.1894,
    "longitude": 4.46028
  },
  {
    "countryCode": "PE",
    "region": "Apurimac",
    "iata": "ANS",
    "icao": "SPHY",
    "name": "Andahuaylas Airport",
    "latitude": -13.7064,
    "longitude": -73.3504
  },
  {
    "countryCode": "AG",
    "region": "Saint George",
    "iata": "ANU",
    "icao": "TAPA",
    "name": "V. C. Bird International Airport",
    "latitude": 17.1367,
    "longitude": -61.7927
  },
  {
    "countryCode": "US",
    "region": "Alaska",
    "iata": "ANV",
    "icao": "PANV",
    "name": "Anvik Airport",
    "latitude": 62.6467,
    "longitude": -160.191
  },
  {
    "countryCode": "US",
    "region": "Nebraska",
    "iata": "ANW",
    "icao": "KANW",
    "name": "Ainsworth Regional Airport",
    "latitude": 42.5792,
    "longitude": -99.993
  },
  {
    "countryCode": "NO",
    "region": "Nordland",
    "iata": "ANX",
    "icao": "ENAN",
    "name": "Andoya Airport",
    "latitude": 69.2925,
    "longitude": 16.1442
  },
  {
    "countryCode": "US",
    "region": "Kansas",
    "iata": "ANY",
    "icao": "KANY",
    "name": "Anthony Municipal Airport",
    "latitude": 37.1585,
    "longitude": -98.0796
  },
  {
    "countryCode": "AU",
    "region": "Northern Territory",
    "iata": "ANZ",
    "icao": "",
    "name": "Angus Downs Airport",
    "latitude": -25.0325,
    "longitude": 132.275
  },
  {
    "countryCode": "PG",
    "region": "Central",
    "iata": "AOA",
    "icao": "",
    "name": "Aroa Airport",
    "latitude": -9.0254,
    "longitude": 146.8
  },
  {
    "countryCode": "PG",
    "region": "Western Highlands",
    "iata": "AOB",
    "icao": "",
    "name": "Annanberg Airport",
    "latitude": -4.90417,
    "longitude": 144.636
  },
  {
    "countryCode": "DE",
    "region": "Thuringen",
    "iata": "AOC",
    "icao": "EDAC",
    "name": "Leipzig-Altenburg Airport",
    "latitude": 50.9819,
    "longitude": 12.5064
  },
  {
    "countryCode": "TD",
    "region": "Salamat",
    "iata": "AOD",
    "icao": "",
    "name": "Abou-Deia Airport",
    "latitude": 11.4773,
    "longitude": 19.2874
  },
  {
    "countryCode": "TR",
    "region": "Eskisehir",
    "iata": "AOE",
    "icao": "LTBY",
    "name": "Anadolu Airport",
    "latitude": 39.8099,
    "longitude": 30.5194
  },
  {
    "countryCode": "CN",
    "region": "Liaoning",
    "iata": "AOG",
    "icao": "ZYAS",
    "name": "Anshan Teng'ao Airport",
    "latitude": 41.1053,
    "longitude": 122.854
  },
  {
    "countryCode": "US",
    "region": "Ohio",
    "iata": "AOH",
    "icao": "KAOH",
    "name": "Lima Allen County Airport",
    "latitude": 40.7069,
    "longitude": -84.0267
  },
  {
    "countryCode": "IT",
    "region": "Marche",
    "iata": "AOI",
    "icao": "LIPY",
    "name": "Ancona Falconara Airport",
    "latitude": 43.6163,
    "longitude": 13.3623
  },
  {
    "countryCode": "JP",
    "region": "Aomori",
    "iata": "AOJ",
    "icao": "RJSA",
    "name": "Aomori Airport",
    "latitude": 40.7347,
    "longitude": 140.691
  },
  {
    "countryCode": "GR",
    "region": "Notio Aigaio",
    "iata": "AOK",
    "icao": "LGKP",
    "name": "Karpathos Island National Airport",
    "latitude": 35.4214,
    "longitude": 27.146
  },
  {
    "countryCode": "AR",
    "region": "Corrientes",
    "iata": "AOL",
    "icao": "SARL",
    "name": "Paso de los Libres Airport",
    "latitude": -29.6894,
    "longitude": -57.1521
  },
  {
    "countryCode": "OM",
    "region": "Ad Dakhiliyah",
    "iata": "AOM",
    "icao": "",
    "name": "Adam Airport",
    "latitude": 22.4919,
    "longitude": 57.3839
  },
  {
    "countryCode": "PG",
    "region": "Eastern Highlands",
    "iata": "AON",
    "icao": "",
    "name": "Arona Airport",
    "latitude": -6.25,
    "longitude": 145.967
  },
  {
    "countryCode": "US",
    "region": "Pennsylvania",
    "iata": "AOO",
    "icao": "KAOO",
    "name": "Altoona-Blair County Airport",
    "latitude": 40.2964,
    "longitude": -78.32
  },
  {
    "countryCode": "PE",
    "region": "Loreto",
    "iata": "AOP",
    "icao": "",
    "name": "Alferez FAP Alfredo Vladimir Sara Bauer Airport",
    "latitude": -2.79613,
    "longitude": -76.4666
  },
  {
    "countryCode": "GL",
    "region": "Avannaata Kommunia",
    "iata": "AOQ",
    "icao": "",
    "name": "Aappilattoq Heliport",
    "latitude": 72.887,
    "longitude": -55.5961
  },
  {
    "countryCode": "MY",
    "region": "Kedah",
    "iata": "AOR",
    "icao": "WMKA",
    "name": "Sultan Abdul Halim Airport",
    "latitude": 6.18967,
    "longitude": 100.398
  },
  {
    "countryCode": "US",
    "region": "Alaska",
    "iata": "AOS",
    "icao": "",
    "name": "Amook Bay Seaplane Base",
    "latitude": 57.4715,
    "longitude": -153.815
  },
  {
    "countryCode": "IT",
    "region": "Valle d'Aosta",
    "iata": "AOT",
    "icao": "LIMW",
    "name": "Aosta Valley Airport",
    "latitude": 45.7385,
    "longitude": 7.36872
  },
  {
    "countryCode": "LA",
    "region": "Attapu",
    "iata": "AOU",
    "icao": "VLAP",
    "name": "Attapeu International Airport",
    "latitude": 14.7931,
    "longitude": 107.045
  },
  {
    "countryCode": "US",
    "region": "Colorado",
    "iata": "APA",
    "icao": "KAPA",
    "name": "Centennial Airport",
    "latitude": 39.5701,
    "longitude": -104.849
  },
  {
    "countryCode": "BO",
    "region": "La Paz",
    "iata": "APB",
    "icao": "SLAP",
    "name": "Apolo Airport",
    "latitude": -14.7356,
    "longitude": -68.4119
  },
  {
    "countryCode": "US",
    "region": "California",
    "iata": "APC",
    "icao": "KAPC",
    "name": "Napa County Airport",
    "latitude": 38.2132,
    "longitude": -122.281
  },
  {
    "countryCode": "US",
    "region": "Florida",
    "iata": "APF",
    "icao": "KAPF",
    "name": "Naples Municipal Airport",
    "latitude": 26.1526,
    "longitude": -81.7753
  },
  {
    "countryCode": "US",
    "region": "Maryland",
    "iata": "APG",
    "icao": "KAPG",
    "name": "Phillips Army Airfield",
    "latitude": 39.4662,
    "longitude": -76.1688
  },
  {
    "countryCode": "US",
    "region": "Virginia",
    "iata": "APH",
    "icao": "KAPH",
    "name": "A.P. Hill Army Airfield",
    "latitude": 38.0689,
    "longitude": -77.3183
  },
  {
    "countryCode": "CO",
    "region": "Meta",
    "iata": "API",
    "icao": "SKAP",
    "name": "Captain Luis F. Gomez Nino Air Base",
    "latitude": 4.07607,
    "longitude": -73.5627
  },
  {
    "countryCode": "PF",
    "region": "Iles Tuamotu-Gambier",
    "iata": "APK",
    "icao": "NTGD",
    "name": "Apataki Airport",
    "latitude": -15.5736,
    "longitude": -146.415
  },
  {
    "countryCode": "MZ",
    "region": "Nampula",
    "iata": "APL",
    "icao": "FQNP",
    "name": "Nampula Airport",
    "latitude": -15.1056,
    "longitude": 39.2818
  },
  {
    "countryCode": "US",
    "region": "Michigan",
    "iata": "APN",
    "icao": "KAPN",
    "name": "Alpena County Regional Airport",
    "latitude": 45.0781,
    "longitude": -83.5603
  },
  {
    "countryCode": "CO",
    "region": "Antioquia",
    "iata": "APO",
    "icao": "SKLC",
    "name": "Antonio Roldan  Betancourt Airport",
    "latitude": 7.81196,
    "longitude": -76.7164
  },
  {
    "countryCode": "PG",
    "region": "National Capital District (Port Moresby)",
    "iata": "APP",
    "icao": "",
    "name": "Asapa Airport",
    "latitude": -8.97917,
    "longitude": 148.104
  },
  {
    "countryCode": "BR",
    "region": "Alagoas",
    "iata": "APQ",
    "icao": "SNAL",
    "name": "Arapiraca Airport",
    "latitude": -9.77536,
    "longitude": -36.6292
  },
  {
    "countryCode": "PG",
    "region": "Southern Highlands",
    "iata": "APR",
    "icao": "AYPE",
    "name": "April River Airport",
    "latitude": -4.67667,
    "longitude": 142.54
  },
  {
    "countryCode": "BR",
    "region": "Goias",
    "iata": "APS",
    "icao": "SWNS",
    "name": "Anapolis Airport",
    "latitude": -16.3623,
    "longitude": -48.9271
  },
  {
    "countryCode": "US",
    "region": "Tennessee",
    "iata": "APT",
    "icao": "KAPT",
    "name": "Marion County Airport (Brown Field)",
    "latitude": 35.0607,
    "longitude": -85.5853
  },
  {
    "countryCode": "BR",
    "region": "Parana",
    "iata": "APU",
    "icao": "SSAP",
    "name": "Apucarana Airport",
    "latitude": -23.6095,
    "longitude": -51.3845
  },
  {
    "countryCode": "US",
    "region": "California",
    "iata": "APV",
    "icao": "KAPV",
    "name": "Apple Valley Airport",
    "latitude": 34.5753,
    "longitude": -117.186
  },
  {
    "countryCode": "WS",
    "region": "Tuamasaga",
    "iata": "APW",
    "icao": "NSFA",
    "name": "Faleolo International Airport",
    "latitude": -13.83,
    "longitude": -172.008
  },
  {
    "countryCode": "BR",
    "region": "Parana",
    "iata": "APX",
    "icao": "SSOG",
    "name": "Arapongas Airport",
    "latitude": -23.3529,
    "longitude": -51.4917
  },
  {
    "countryCode": "BR",
    "region": "Maranhao",
    "iata": "APY",
    "icao": "SNAI",
    "name": "Alto Parnaiba Airport",
    "latitude": -9.08361,
    "longitude": -45.9506
  },
  {
    "countryCode": "AR",
    "region": "Neuquen",
    "iata": "APZ",
    "icao": "SAHZ",
    "name": "Zapala Airport",
    "latitude": -38.9755,
    "longitude": -70.1136
  },
  {
    "countryCode": "BR",
    "region": "Sao Paulo",
    "iata": "AQA",
    "icao": "SBAQ",
    "name": "Araraquara Airport",
    "latitude": -21.812,
    "longitude": -48.133
  },
  {
    "countryCode": "GT",
    "region": "Quiche",
    "iata": "AQB",
    "icao": "MGQC",
    "name": "Quiche Airport",
    "latitude": 15.0122,
    "longitude": -91.1506
  },
  {
    "countryCode": "CN",
    "region": "Anhui",
    "iata": "AQG",
    "icao": "ZSAQ",
    "name": "Anqing Tianzhushan Airport",
    "latitude": 30.5822,
    "longitude": 117.05
  },
  {
    "countryCode": "SA",
    "region": "Ash Sharqiyah",
    "iata": "AQI",
    "icao": "OEPA",
    "name": "Al Qaisumah/Hafr Al Batin Airport",
    "latitude": 28.3352,
    "longitude": 46.1251
  },
  {
    "countryCode": "JO",
    "region": "Al 'Aqabah",
    "iata": "AQJ",
    "icao": "OJAQ",
    "name": "King Hussein International Airport",
    "latitude": 29.6116,
    "longitude": 35.0181
  },
  {
    "countryCode": "BR",
    "region": "Rondonia",
    "iata": "AQM",
    "icao": "",
    "name": "Ariquemes Airport",
    "latitude": -10.1781,
    "longitude": -62.8256
  },
  {
    "countryCode": "PE",
    "region": "Arequipa",
    "iata": "AQP",
    "icao": "SPQU",
    "name": "Rodriguez Ballon International Airport",
    "latitude": -16.3411,
    "longitude": -71.5831
  },
  {
    "countryCode": "FJ",
    "region": "Northern",
    "iata": "AQS",
    "icao": "",
    "name": "Saqani Airport",
    "latitude": -16.4494,
    "longitude": 179.74
  },
  {
    "countryCode": "US",
    "region": "Alaska",
    "iata": "AQY",
    "icao": "",
    "name": "Girdwood Airport",
    "latitude": 60.9661,
    "longitude": -149.126
  },
  {
    "countryCode": "US",
    "region": "Louisiana",
    "iata": "ARA",
    "icao": "KARA",
    "name": "Acadiana Regional Airport",
    "latitude": 30.0378,
    "longitude": -91.8839
  },
  {
    "countryCode": "US",
    "region": "Michigan",
    "iata": "ARB",
    "icao": "KARB",
    "name": "Ann Arbor Municipal Airport",
    "latitude": 42.223,
    "longitude": -83.7456
  },
  {
    "countryCode": "US",
    "region": "Alaska",
    "iata": "ARC",
    "icao": "PARC",
    "name": "Arctic Village Airport",
    "latitude": 68.1147,
    "longitude": -145.579
  },
  {
    "countryCode": "ID",
    "region": "Nusa Tenggara Timur",
    "iata": "ARD",
    "icao": "WATM",
    "name": "Alor Island Airport",
    "latitude": -8.13234,
    "longitude": 124.597
  },
  {
    "countryCode": "US",
    "region": "Massachusetts",
    "iata": "ARE",
    "icao": "TJAB",
    "name": "Antonio (Nery) Juarbe Pol Airport",
    "latitude": 18.45,
    "longitude": -66.6753
  },
  {
    "countryCode": "CO",
    "region": "Vaupes",
    "iata": "ARF",
    "icao": "",
    "name": "Acaricuara Airport",
    "latitude": 0.533333,
    "longitude": -70.1333
  },
  {
    "countryCode": "US",
    "region": "Arkansas",
    "iata": "ARG",
    "icao": "KARG",
    "name": "Walnut Ridge Regional Airport",
    "latitude": 36.1247,
    "longitude": -90.9251
  },
  {
    "countryCode": "RU",
    "region": "Arkhangel'skaya oblast'",
    "iata": "ARH",
    "icao": "ULAA",
    "name": "Talagi Airport",
    "latitude": 64.6003,
    "longitude": 40.7167
  },
  {
    "countryCode": "CL",
    "region": "Arica y Parinacota",
    "iata": "ARI",
    "icao": "SCAR",
    "name": "Chacalluta International Airport",
    "latitude": -18.3485,
    "longitude": -70.3387
  },
  {
    "countryCode": "ID",
    "region": "Papua",
    "iata": "ARJ",
    "icao": "WAJA",
    "name": "Arso Airport",
    "latitude": -2.93333,
    "longitude": 140.783
  },
  {
    "countryCode": "TZ",
    "region": "Arusha",
    "iata": "ARK",
    "icao": "HTAR",
    "name": "Arusha Airport",
    "latitude": -3.36779,
    "longitude": 36.6333
  },
  {
    "countryCode": "BF",
    "region": "Tapoa",
    "iata": "ARL",
    "icao": "DFER",
    "name": "Arly Airport",
    "latitude": 11.597,
    "longitude": 1.483
  },
  {
    "countryCode": "AU",
    "region": "New South Wales",
    "iata": "ARM",
    "icao": "YARM",
    "name": "Armidale Airport",
    "latitude": -30.5281,
    "longitude": 151.617
  },
  {
    "countryCode": "SE",
    "region": "Stockholms lan",
    "iata": "ARN",
    "icao": "ESSA",
    "name": "Stockholm Arlanda Airport",
    "latitude": 59.6519,
    "longitude": 17.9186
  },
  {
    "countryCode": "CO",
    "region": "Antioquia",
    "iata": "ARO",
    "icao": "",
    "name": "Arboletes Airport",
    "latitude": 8.85705,
    "longitude": -76.4244
  },
  {
    "countryCode": "PG",
    "region": "National Capital District (Port Moresby)",
    "iata": "ARP",
    "icao": "",
    "name": "Aragip Airport",
    "latitude": -9.88333,
    "longitude": 149.483
  },
  {
    "countryCode": "CO",
    "region": "Arauca",
    "iata": "ARQ",
    "icao": "SKAT",
    "name": "El Troncal Airport",
    "latitude": 7.02106,
    "longitude": -71.3889
  },
  {
    "countryCode": "AR",
    "region": "Chubut",
    "iata": "ARR",
    "icao": "SAVR",
    "name": "Alto Rio Senguer Airport",
    "latitude": -45.0136,
    "longitude": -70.8122
  },
  {
    "countryCode": "BR",
    "region": "Goias",
    "iata": "ARS",
    "icao": "SWEC",
    "name": "Aragarcas Airport",
    "latitude": -15.8994,
    "longitude": -52.2411
  },
  {
    "countryCode": "US",
    "region": "New York",
    "iata": "ART",
    "icao": "KART",
    "name": "Watertown International Airport",
    "latitude": 43.9919,
    "longitude": -76.0217
  },
  {
    "countryCode": "BR",
    "region": "Sao Paulo",
    "iata": "ARU",
    "icao": "SBAU",
    "name": "Aracatuba Airport",
    "latitude": -21.1413,
    "longitude": -50.4247
  },
  {
    "countryCode": "US",
    "region": "Wisconsin",
    "iata": "ARV",
    "icao": "KARV",
    "name": "Lakeland Airport (Noble F. Lee Memorial Field)",
    "latitude": 45.9279,
    "longitude": -89.7309
  },
  {
    "countryCode": "RO",
    "region": "Arad",
    "iata": "ARW",
    "icao": "LRAR",
    "name": "Arad International Airport",
    "latitude": 46.1766,
    "longitude": 21.262
  },
  {
    "countryCode": "BR",
    "region": "Ceara",
    "iata": "ARX",
    "icao": "SBAC",
    "name": "Aracati Airport",
    "latitude": -4.56861,
    "longitude": -37.8047
  },
  {
    "countryCode": "AU",
    "region": "Victoria",
    "iata": "ARY",
    "icao": "YARA",
    "name": "Ararat Airport",
    "latitude": -37.3094,
    "longitude": 142.989
  },
  {
    "countryCode": "AO",
    "region": "Zaire",
    "iata": "ARZ",
    "icao": "FNZE",
    "name": "N'zeto Airport",
    "latitude": -7.25944,
    "longitude": 12.8631
  },
  {
    "countryCode": "ER",
    "region": "Janubi al Bahri al Ahmar",
    "iata": "ASA",
    "icao": "HHSB",
    "name": "Assab International Airport",
    "latitude": 13.0718,
    "longitude": 42.645
  },
  {
    "countryCode": "TM",
    "region": "Dasoguz",
    "iata": "ASB",
    "icao": "UTAA",
    "name": "Ashgabat International Airport",
    "latitude": 37.9868,
    "longitude": 58.361
  },
  {
    "countryCode": "BO",
    "region": "Santa Cruz",
    "iata": "ASC",
    "icao": "SLAS",
    "name": "Ascencion de Guarayos Airport",
    "latitude": -15.9303,
    "longitude": -63.1567
  },
  {
    "countryCode": "BS",
    "region": "Central Andros",
    "iata": "ASD",
    "icao": "MYAF",
    "name": "Andros Town International Airport",
    "latitude": 24.6979,
    "longitude": -77.7956
  },
  {
    "countryCode": "US",
    "region": "Colorado",
    "iata": "ASE",
    "icao": "KASE",
    "name": "Aspen-Pitkin County Airport (Sardy Field)",
    "latitude": 39.2232,
    "longitude": -106.869
  },
  {
    "countryCode": "RU",
    "region": "Astrakhanskaya oblast'",
    "iata": "ASF",
    "icao": "URWA",
    "name": "Narimanovo Airport",
    "latitude": 46.2833,
    "longitude": 48.0063
  },
  {
    "countryCode": "NZ",
    "region": "Canterbury",
    "iata": "ASG",
    "icao": "NZAS",
    "name": "Ashburton Aerodrome",
    "latitude": -43.9033,
    "longitude": 171.797
  },
  {
    "countryCode": "US",
    "region": "New Hampshire",
    "iata": "ASH",
    "icao": "KASH",
    "name": "Nashua Airport (Boire Field)",
    "latitude": 42.7817,
    "longitude": -71.5148
  },
  {
    "countryCode": "SH",
    "region": "Ascension",
    "iata": "ASI",
    "icao": "FHAW",
    "name": "RAF Ascension Island (Wideawake Field)",
    "latitude": -7.9696,
    "longitude": -14.3937
  },
  {
    "countryCode": "JP",
    "region": "Kagoshima",
    "iata": "ASJ",
    "icao": "RJKA",
    "name": "Amami Airport",
    "latitude": 28.4306,
    "longitude": 129.713
  },
  {
    "countryCode": "CI",
    "region": "Yamoussoukro",
    "iata": "ASK",
    "icao": "DIYO",
    "name": "Yamoussoukro International Airport",
    "latitude": 6.90317,
    "longitude": -5.36558
  },
  {
    "countryCode": "US",
    "region": "Texas",
    "iata": "ASL",
    "icao": "KASL",
    "name": "Harrison County Airport",
    "latitude": 32.5205,
    "longitude": -94.3078
  },
  {
    "countryCode": "ER",
    "region": "Al Awsat",
    "iata": "ASM",
    "icao": "HHAS",
    "name": "Asmara International Airport",
    "latitude": 15.2919,
    "longitude": 38.9107
  },
  {
    "countryCode": "US",
    "region": "Alabama",
    "iata": "ASN",
    "icao": "KASN",
    "name": "Talladega Municipal Airport",
    "latitude": 33.5699,
    "longitude": -86.0509
  },
  {
    "countryCode": "ET",
    "region": "Binshangul Gumuz",
    "iata": "ASO",
    "icao": "HASO",
    "name": "Asosa Airport",
    "latitude": 10.0185,
    "longitude": 34.5863
  },
  {
    "countryCode": "AU",
    "region": "Northern Territory",
    "iata": "ASP",
    "icao": "YBAS",
    "name": "Alice Springs Airport",
    "latitude": -23.8067,
    "longitude": 133.902
  },
  {
    "countryCode": "US",
    "region": "Nevada",
    "iata": "ASQ",
    "icao": "",
    "name": "Austin Airport",
    "latitude": 39.468,
    "longitude": -117.195
  },
  {
    "countryCode": "TR",
    "region": "Kayseri",
    "iata": "ASR",
    "icao": "LTAU",
    "name": "Erkilet International Airport",
    "latitude": 38.7704,
    "longitude": 35.4954
  },
  {
    "countryCode": "US",
    "region": "Oregon",
    "iata": "AST",
    "icao": "KAST",
    "name": "Astoria Regional Airport",
    "latitude": 46.158,
    "longitude": -123.879
  },
  {
    "countryCode": "PY",
    "region": "Central",
    "iata": "ASU",
    "icao": "SGAS",
    "name": "Silvio Pettirossi International Airport",
    "latitude": -25.24,
    "longitude": -57.52
  },
  {
    "countryCode": "KE",
    "region": "Kajiado",
    "iata": "ASV",
    "icao": "HKAM",
    "name": "Amboseli Airport",
    "latitude": -2.64505,
    "longitude": 37.2531
  },
  {
    "countryCode": "EG",
    "region": "Aswan",
    "iata": "ASW",
    "icao": "HESN",
    "name": "Aswan International Airport",
    "latitude": 23.9644,
    "longitude": 32.82
  },
  {
    "countryCode": "US",
    "region": "Wisconsin",
    "iata": "ASX",
    "icao": "KASX",
    "name": "John F. Kennedy Memorial Airport",
    "latitude": 46.5485,
    "longitude": -90.919
  },
  {
    "countryCode": "US",
    "region": "North Dakota",
    "iata": "ASY",
    "icao": "KASY",
    "name": "Ashley Municipal Airport",
    "latitude": 46.0239,
    "longitude": -99.3526
  },
  {
    "countryCode": "PG",
    "region": "West New Britain",
    "iata": "ASZ",
    "icao": "",
    "name": "Asirim Airport",
    "latitude": -6.00972,
    "longitude": 150.369
  },
  {
    "countryCode": "PE",
    "region": "Ancash",
    "iata": "ATA",
    "icao": "SPHZ",
    "name": "Comandante FAP German Arias Graziani Airport",
    "latitude": -9.34744,
    "longitude": -77.5984
  },
  {
    "countryCode": "SD",
    "region": "River Nile",
    "iata": "ATB",
    "icao": "HSAT",
    "name": "Atbara Airport",
    "latitude": 17.7103,
    "longitude": 34.057
  },
  {
    "countryCode": "BS",
    "region": "South Eleuthera",
    "iata": "ATC",
    "icao": "MYCA",
    "name": "Arthur's Town Airport",
    "latitude": 24.6294,
    "longitude": -75.6738
  },
  {
    "countryCode": "SB",
    "region": "Malaita",
    "iata": "ATD",
    "icao": "AGAT",
    "name": "Uru Harbour Airport",
    "latitude": -8.87333,
    "longitude": 161.011
  },
  {
    "countryCode": "US",
    "region": "Oklahoma",
    "iata": "ATE",
    "icao": "",
    "name": "Antlers Municipal Airport",
    "latitude": 34.1926,
    "longitude": -95.6499
  },
  {
    "countryCode": "EC",
    "region": "Tungurahua",
    "iata": "ATF",
    "icao": "SEAM",
    "name": "Chachoan Airport",
    "latitude": -1.21207,
    "longitude": -78.5746
  },
  {
    "countryCode": "PK",
    "region": "Punjab",
    "iata": "ATG",
    "icao": "",
    "name": "PAF Base Minhas",
    "latitude": 33.8691,
    "longitude": 72.4009
  },
  {
    "countryCode": "GR",
    "region": "Attiki",
    "iata": "ATH",
    "icao": "LGAV",
    "name": "Athens International Airport (Eleftherios Venizelos Airport)",
    "latitude": 37.9364,
    "longitude": 23.9445
  },
  {
    "countryCode": "UY",
    "region": "Artigas",
    "iata": "ATI",
    "icao": "SUAG",
    "name": "Artigas International Airport",
    "latitude": -30.4007,
    "longitude": -56.5079
  },
  {
    "countryCode": "MG",
    "region": "Antananarivo",
    "iata": "ATJ",
    "icao": "FMME",
    "name": "Antsirabe Airport",
    "latitude": -19.8392,
    "longitude": 47.0637
  },
  {
    "countryCode": "US",
    "region": "Alaska",
    "iata": "ATK",
    "icao": "PATQ",
    "name": "Atqasuk Edward Burnell Sr. Memorial Airport",
    "latitude": 70.4673,
    "longitude": -157.436
  },
  {
    "countryCode": "US",
    "region": "Georgia",
    "iata": "ATL",
    "icao": "KATL",
    "name": "Hartsfield-Jackson Atlanta International Airport",
    "latitude": 33.6367,
    "longitude": -84.4281
  },
  {
    "countryCode": "BR",
    "region": "Para",
    "iata": "ATM",
    "icao": "SBHT",
    "name": "Altamira Airport",
    "latitude": -3.25391,
    "longitude": -52.254
  },
  {
    "countryCode": "PG",
    "region": "New Ireland",
    "iata": "ATN",
    "icao": "AYNX",
    "name": "Namatanai Airport",
    "latitude": -3.6695,
    "longitude": 152.438
  },
  {
    "countryCode": "US",
    "region": "Ohio",
    "iata": "ATO",
    "icao": "KUNI",
    "name": "Ohio University Airport (Snyder Field)",
    "latitude": 39.211,
    "longitude": -82.2314
  },
  {
    "countryCode": "PG",
    "region": "Western",
    "iata": "ATP",
    "icao": "AYAI",
    "name": "Aitape Airstrip",
    "latitude": -3.14361,
    "longitude": 142.347
  },
  {
    "countryCode": "IN",
    "region": "Punjab",
    "iata": "ATQ",
    "icao": "VIAR",
    "name": "Sri Guru Ram Dass Jee International Airport",
    "latitude": 31.7096,
    "longitude": 74.7973
  },
  {
    "countryCode": "MR",
    "region": "Adrar",
    "iata": "ATR",
    "icao": "GQPA",
    "name": "Atar International Airport",
    "latitude": 20.5068,
    "longitude": -13.0432
  },
  {
    "countryCode": "US",
    "region": "New Mexico",
    "iata": "ATS",
    "icao": "KATS",
    "name": "Artesia Municipal Airport",
    "latitude": 32.8525,
    "longitude": -104.468
  },
  {
    "countryCode": "US",
    "region": "Alaska",
    "iata": "ATT",
    "icao": "",
    "name": "Atmautluak Airport",
    "latitude": 60.8667,
    "longitude": -162.273
  },
  {
    "countryCode": "US",
    "region": "Alaska",
    "iata": "ATU",
    "icao": "PAAT",
    "name": "Casco Cove Coast Guard Station",
    "latitude": 52.8284,
    "longitude": 173.18
  },
  {
    "countryCode": "TD",
    "region": "Batha",
    "iata": "ATV",
    "icao": "FTTI",
    "name": "Ati Airport",
    "latitude": 13.2389,
    "longitude": 18.3133
  },
  {
    "countryCode": "US",
    "region": "Wisconsin",
    "iata": "ATW",
    "icao": "KATW",
    "name": "Appleton International Airport",
    "latitude": 44.2581,
    "longitude": -88.5191
  },
  {
    "countryCode": "KZ",
    "region": "Aqmola oblysy",
    "iata": "ATX",
    "icao": "",
    "name": "Atbasar Airport",
    "latitude": 51.8517,
    "longitude": 68.3633
  },
  {
    "countryCode": "US",
    "region": "South Dakota",
    "iata": "ATY",
    "icao": "KATY",
    "name": "Watertown Regional Airport",
    "latitude": 44.914,
    "longitude": -97.1547
  },
  {
    "countryCode": "EG",
    "region": "Asyut",
    "iata": "ATZ",
    "icao": "HEAT",
    "name": "Assiut Airport",
    "latitude": 27.0465,
    "longitude": 31.012
  },
  {
    "countryCode": "AW",
    "region": "Aruba",
    "iata": "AUA",
    "icao": "TNCA",
    "name": "Queen Beatrix International Airport",
    "latitude": 12.5014,
    "longitude": -70.0152
  },
  {
    "countryCode": "CO",
    "region": "Arauca",
    "iata": "AUC",
    "icao": "SKUC",
    "name": "Santiago Perez  Quiroz Airport",
    "latitude": 7.06888,
    "longitude": -70.7369
  },
  {
    "countryCode": "AU",
    "region": "Queensland",
    "iata": "AUD",
    "icao": "YAGD",
    "name": "Augustus Downs Airport",
    "latitude": -18.515,
    "longitude": 139.878
  },
  {
    "countryCode": "EG",
    "region": "Janub Sina'",
    "iata": "AUE",
    "icao": "",
    "name": "Abu Rudeis Airport",
    "latitude": 28.899,
    "longitude": 33.2025
  },
  {
    "countryCode": "FR",
    "region": "Bourgogne-Franche-Comte",
    "iata": "AUF",
    "icao": "LFLA",
    "name": "Auxerre - Branches Aerodrome",
    "latitude": 47.8502,
    "longitude": 3.49711
  },
  {
    "countryCode": "US",
    "region": "Maine",
    "iata": "AUG",
    "icao": "KAUG",
    "name": "Augusta State Airport",
    "latitude": 44.3206,
    "longitude": -69.7973
  },
  {
    "countryCode": "AE",
    "region": "Abu Zaby",
    "iata": "AUH",
    "icao": "OMAA",
    "name": "Abu Dhabi International Airport",
    "latitude": 24.433,
    "longitude": 54.6511
  },
  {
    "countryCode": "PG",
    "region": "Western Highlands",
    "iata": "AUI",
    "icao": "AYND",
    "name": "Aua Island Airport",
    "latitude": -1.46056,
    "longitude": 143.065
  },
  {
    "countryCode": "PG",
    "region": "Southern Highlands",
    "iata": "AUJ",
    "icao": "AYAT",
    "name": "Ambunti Airport",
    "latitude": -4.21567,
    "longitude": 142.823
  },
  {
    "countryCode": "US",
    "region": "Alaska",
    "iata": "AUK",
    "icao": "",
    "name": "Alakanuk Airport",
    "latitude": 62.68,
    "longitude": -164.66
  },
  {
    "countryCode": "MH",
    "region": "Aur",
    "iata": "AUL",
    "icao": "",
    "name": "Aur Airport",
    "latitude": 8.14528,
    "longitude": 171.173
  },
  {
    "countryCode": "US",
    "region": "Minnesota",
    "iata": "AUM",
    "icao": "KAUM",
    "name": "Austin Municipal Airport",
    "latitude": 43.665,
    "longitude": -92.9334
  },
  {
    "countryCode": "US",
    "region": "California",
    "iata": "AUN",
    "icao": "KAUN",
    "name": "Auburn Municipal Airport",
    "latitude": 38.9548,
    "longitude": -121.082
  },
  {
    "countryCode": "US",
    "region": "Alabama",
    "iata": "AUO",
    "icao": "KAUO",
    "name": "Auburn University Regional Airport",
    "latitude": 32.6151,
    "longitude": -85.434
  },
  {
    "countryCode": "PG",
    "region": "Milne Bay",
    "iata": "AUP",
    "icao": "AYAG",
    "name": "Agaun Airport",
    "latitude": -9.93083,
    "longitude": 149.386
  },
  {
    "countryCode": "PF",
    "region": "Iles Marquises",
    "iata": "AUQ",
    "icao": "NTMN",
    "name": "Atuona Airport",
    "latitude": -9.76879,
    "longitude": -139.011
  },
  {
    "countryCode": "FR",
    "region": "Auvergne-Rhone-Alpes",
    "iata": "AUR",
    "icao": "LFLW",
    "name": "Aurillac - Tronquieres Airport",
    "latitude": 44.8914,
    "longitude": 2.42194
  },
  {
    "countryCode": "US",
    "region": "Texas",
    "iata": "AUS",
    "icao": "KAUS",
    "name": "Austin-Bergstrom International Airport",
    "latitude": 30.1945,
    "longitude": -97.6699
  },
  {
    "countryCode": "TL",
    "region": "Dili",
    "iata": "AUT",
    "icao": "WPAT",
    "name": "Atauro Airport",
    "latitude": -8.24313,
    "longitude": 125.606
  },
  {
    "countryCode": "AU",
    "region": "Queensland",
    "iata": "AUU",
    "icao": "YAUR",
    "name": "Aurukun Airport",
    "latitude": -13.3541,
    "longitude": 141.721
  },
  {
    "countryCode": "PG",
    "region": "Morobe",
    "iata": "AUV",
    "icao": "AYUM",
    "name": "Aumo Airport",
    "latitude": -5.73111,
    "longitude": 148.445
  },
  {
    "countryCode": "US",
    "region": "Wisconsin",
    "iata": "AUW",
    "icao": "KAUW",
    "name": "Wausau Downtown Airport",
    "latitude": 44.9262,
    "longitude": -89.6266
  },
  {
    "countryCode": "BR",
    "region": "Tocantins",
    "iata": "AUX",
    "icao": "SWGN",
    "name": "Araguaina Airport",
    "latitude": -7.22787,
    "longitude": -48.2405
  },
  {
    "countryCode": "VU",
    "region": "Tafea",
    "iata": "AUY",
    "icao": "NVVA",
    "name": "Anatom Airport",
    "latitude": -20.2492,
    "longitude": 169.771
  },
  {
    "countryCode": "US",
    "region": "Illinois",
    "iata": "AUZ",
    "icao": "KARR",
    "name": "Aurora Municipal Airport",
    "latitude": 41.7719,
    "longitude": -88.4757
  },
  {
    "countryCode": "CN",
    "region": "Guizhou",
    "iata": "AVA",
    "icao": "ZUAS",
    "name": "Anshun Huangguoshu Airport",
    "latitude": 26.2606,
    "longitude": 105.873
  },
  {
    "countryCode": "IT",
    "region": "Friuli-Venezia Giulia",
    "iata": "AVB",
    "icao": "LIPA",
    "name": "Aviano Air Base",
    "latitude": 46.0319,
    "longitude": 12.5965
  },
  {
    "countryCode": "AU",
    "region": "Northern Territory",
    "iata": "AVG",
    "icao": "YAUV",
    "name": "Auvergne Airport",
    "latitude": -15.7,
    "longitude": 130
  },
  {
    "countryCode": "CU",
    "region": "Ciego de Avila",
    "iata": "AVI",
    "icao": "MUCA",
    "name": "Maximo Gomez  Airport",
    "latitude": 22.0271,
    "longitude": -78.7896
  },
  {
    "countryCode": "MN",
    "region": "Ovorhangay",
    "iata": "AVK",
    "icao": "ZMAH",
    "name": "Arvaikheer Airport",
    "latitude": 46.2503,
    "longitude": 102.802
  },
  {
    "countryCode": "US",
    "region": "North Carolina",
    "iata": "AVL",
    "icao": "KAVL",
    "name": "Asheville Regional Airport",
    "latitude": 35.4362,
    "longitude": -82.5418
  },
  {
    "countryCode": "FR",
    "region": "Provence-Alpes-Cote-d'Azur",
    "iata": "AVN",
    "icao": "LFMV",
    "name": "Avignon - Provence Airport",
    "latitude": 43.9073,
    "longitude": 4.90183
  },
  {
    "countryCode": "US",
    "region": "Florida",
    "iata": "AVO",
    "icao": "KAVO",
    "name": "Avon Park Executive Airport",
    "latitude": 27.5912,
    "longitude": -81.5278
  },
  {
    "countryCode": "US",
    "region": "Pennsylvania",
    "iata": "AVP",
    "icao": "KAVP",
    "name": "Wilkes-Barre/Scranton International Airport",
    "latitude": 41.3385,
    "longitude": -75.7234
  },
  {
    "countryCode": "SB",
    "region": "Guadalcanal",
    "iata": "AVU",
    "icao": "AGGJ",
    "name": "Avu Avu Airport",
    "latitude": -9.86833,
    "longitude": 160.411
  },
  {
    "countryCode": "AU",
    "region": "Victoria",
    "iata": "AVV",
    "icao": "YMAV",
    "name": "Avalon Airport",
    "latitude": -38.0394,
    "longitude": 144.469
  },
  {
    "countryCode": "US",
    "region": "Arizona",
    "iata": "AVW",
    "icao": "KAVQ",
    "name": "Marana Regional Airport",
    "latitude": 32.4096,
    "longitude": -111.218
  },
  {
    "countryCode": "US",
    "region": "California",
    "iata": "AVX",
    "icao": "KAVX",
    "name": "Catalina Airport",
    "latitude": 33.4049,
    "longitude": -118.416
  },
  {
    "countryCode": "ET",
    "region": "YeDebub Biheroch Bihereseboch na Hizboch",
    "iata": "AWA",
    "icao": "HALA",
    "name": "Awasa Airport",
    "latitude": 7.067,
    "longitude": 38.5
  },
  {
    "countryCode": "PG",
    "region": "Western",
    "iata": "AWB",
    "icao": "AYAW",
    "name": "Awaba Airport",
    "latitude": -8.00611,
    "longitude": 142.748
  },
  {
    "countryCode": "VU",
    "region": "Tafea",
    "iata": "AWD",
    "icao": "NVVB",
    "name": "Aniwa Airport",
    "latitude": -19.2346,
    "longitude": 169.601
  },
  {
    "countryCode": "GA",
    "region": "Ogooue-Maritime",
    "iata": "AWE",
    "icao": "FOGW",
    "name": "Alowe Airport",
    "latitude": -0.545,
    "longitude": 9.444
  },
  {
    "countryCode": "UM",
    "region": "Palmyra Atoll",
    "iata": "AWK",
    "icao": "PWAK",
    "name": "Wake Island Airfield",
    "latitude": 19.2821,
    "longitude": 166.636
  },
  {
    "countryCode": "US",
    "region": "Arkansas",
    "iata": "AWM",
    "icao": "KAWM",
    "name": "West Memphis Municipal Airport",
    "latitude": 35.1351,
    "longitude": -90.2344
  },
  {
    "countryCode": "AU",
    "region": "South Australia",
    "iata": "AWN",
    "icao": "",
    "name": "Alton Downs Airport",
    "latitude": -26.5333,
    "longitude": 139.267
  },
  {
    "countryCode": "AU",
    "region": "Northern Territory",
    "iata": "AWP",
    "icao": "",
    "name": "Austral Downs Airport",
    "latitude": -20.5,
    "longitude": 137.75
  },
  {
    "countryCode": "PG",
    "region": "Madang",
    "iata": "AWR",
    "icao": "",
    "name": "Awar Airport",
    "latitude": -4.124,
    "longitude": 144.853
  },
  {
    "countryCode": "IR",
    "region": "Khuzestan",
    "iata": "AWZ",
    "icao": "OIAW",
    "name": "Ahvaz International Airport",
    "latitude": 31.3374,
    "longitude": 48.762
  },
  {
    "countryCode": "AI",
    "region": "Anguilla",
    "iata": "AXA",
    "icao": "TQPF",
    "name": "Clayton J. Lloyd International Airport",
    "latitude": 18.2048,
    "longitude": -63.0551
  },
  {
    "countryCode": "US",
    "region": "New York",
    "iata": "AXB",
    "icao": "",
    "name": "Maxson Airfield",
    "latitude": 44.312,
    "longitude": -75.9003
  },
  {
    "countryCode": "AU",
    "region": "Queensland",
    "iata": "AXC",
    "icao": "YAMC",
    "name": "Aramac Airport",
    "latitude": -22.9667,
    "longitude": 145.242
  },
  {
    "countryCode": "GR",
    "region": "Anatoliki Makedonia kai Thraki",
    "iata": "AXD",
    "icao": "LGAL",
    "name": "Alexandroupoli Airport (Dimokritos Airport)",
    "latitude": 40.8559,
    "longitude": 25.9563
  },
  {
    "countryCode": "BR",
    "region": "Santa Catarina",
    "iata": "AXE",
    "icao": "",
    "name": "Xanxer - Joo Winckler Airport",
    "latitude": -26.8756,
    "longitude": -52.3731
  },
  {
    "countryCode": "CN",
    "region": "Nei Mongol",
    "iata": "AXF",
    "icao": "",
    "name": "Alxa Left Banner Bayanhot Airport",
    "latitude": 38.7483,
    "longitude": 105.589
  },
  {
    "countryCode": "US",
    "region": "Iowa",
    "iata": "AXG",
    "icao": "KAXA",
    "name": "Algona Municipal Airport",
    "latitude": 43.0779,
    "longitude": -94.272
  },
  {
    "countryCode": "JP",
    "region": "Kumamoto",
    "iata": "AXJ",
    "icao": "RJDA",
    "name": "Amakusa Airfield",
    "latitude": 32.4825,
    "longitude": 130.159
  },
  {
    "countryCode": "YE",
    "region": "Shabwah",
    "iata": "AXK",
    "icao": "OYAT",
    "name": "Ataq Airport",
    "latitude": 14.5513,
    "longitude": 46.8262
  },
  {
    "countryCode": "AU",
    "region": "Northern Territory",
    "iata": "AXL",
    "icao": "YALX",
    "name": "Alexandria Homestead Airport",
    "latitude": -19.0602,
    "longitude": 136.71
  },
  {
    "countryCode": "CO",
    "region": "Quindio",
    "iata": "AXM",
    "icao": "SKAR",
    "name": "El Eden International Airport",
    "latitude": 4.45278,
    "longitude": -75.7664
  },
  {
    "countryCode": "US",
    "region": "Minnesota",
    "iata": "AXN",
    "icao": "KAXN",
    "name": "Alexandria Municipal Airport (Chandler Field)",
    "latitude": 45.8663,
    "longitude": -95.3947
  },
  {
    "countryCode": "BS",
    "region": "Acklins",
    "iata": "AXP",
    "icao": "MYAP",
    "name": "Spring Point Airport",
    "latitude": 22.4418,
    "longitude": -73.9709
  },
  {
    "countryCode": "PF",
    "region": "Iles Tuamotu-Gambier",
    "iata": "AXR",
    "icao": "NTGU",
    "name": "Arutua Airport",
    "latitude": -15.2483,
    "longitude": -146.617
  },
  {
    "countryCode": "US",
    "region": "Oklahoma",
    "iata": "AXS",
    "icao": "KAXS",
    "name": "Altus/Quartz Mountain Regional Airport",
    "latitude": 34.698,
    "longitude": -99.3385
  },
  {
    "countryCode": "JP",
    "region": "Akita",
    "iata": "AXT",
    "icao": "RJSK",
    "name": "Akita Airport",
    "latitude": 39.6156,
    "longitude": 140.219
  },
  {
    "countryCode": "ET",
    "region": "Tigray",
    "iata": "AXU",
    "icao": "HAAX",
    "name": "Axum Airport",
    "latitude": 14.1468,
    "longitude": 38.7728
  },
  {
    "countryCode": "US",
    "region": "Ohio",
    "iata": "AXV",
    "icao": "KAXV",
    "name": "Neil Armstrong Airport",
    "latitude": 40.4934,
    "longitude": -84.2989
  },
  {
    "countryCode": "US",
    "region": "New Mexico",
    "iata": "AXX",
    "icao": "KAXX",
    "name": "Angel Fire Airport",
    "latitude": 36.422,
    "longitude": -105.29
  },
  {
    "countryCode": "CO",
    "region": "Cordoba",
    "iata": "AYA",
    "icao": "",
    "name": "Ayapel Airport",
    "latitude": 8.3,
    "longitude": -75.15
  },
  {
    "countryCode": "CO",
    "region": "Amazonas",
    "iata": "AYC",
    "icao": "",
    "name": "Ayacucho Airport",
    "latitude": 8.6,
    "longitude": -73.6167
  },
  {
    "countryCode": "AU",
    "region": "Northern Territory",
    "iata": "AYD",
    "icao": "",
    "name": "Alroy Downs Airport",
    "latitude": -19.2908,
    "longitude": 136.079
  },
  {
    "countryCode": "CO",
    "region": "Caqueta",
    "iata": "AYG",
    "icao": "SKYA",
    "name": "Yaguara Airport",
    "latitude": 1.54417,
    "longitude": -73.9333
  },
  {
    "countryCode": "CO",
    "region": "Guaviare",
    "iata": "AYI",
    "icao": "",
    "name": "Yari Airport",
    "latitude": -0.383333,
    "longitude": -72.2667
  },
  {
    "countryCode": "IN",
    "region": "Uttar Pradesh",
    "iata": "AYJ",
    "icao": "",
    "name": "Ayodhya Faizabad Airport",
    "latitude": 26.7474,
    "longitude": 82.1505
  },
  {
    "countryCode": "KZ",
    "region": "Qostanay oblysy",
    "iata": "AYK",
    "icao": "UAUR",
    "name": "Arkalyk Airport",
    "latitude": 50.3186,
    "longitude": 66.9528
  },
  {
    "countryCode": "AU",
    "region": "Northern Territory",
    "iata": "AYL",
    "icao": "",
    "name": "Anthony Lagoon Airport",
    "latitude": -18.0181,
    "longitude": 135.535
  },
  {
    "countryCode": "AE",
    "region": "Abu Zaby",
    "iata": "AYM",
    "icao": "",
    "name": "Yas Island Seaplane Base",
    "latitude": 24.467,
    "longitude": 54.6103
  },
  {
    "countryCode": "CN",
    "region": "Henan",
    "iata": "AYN",
    "icao": "ZHAY",
    "name": "Anyang Airport",
    "latitude": 36.1339,
    "longitude": 114.344
  },
  {
    "countryCode": "PY",
    "region": "Misiones",
    "iata": "AYO",
    "icao": "SGAY",
    "name": "Juan de Ayolas Airport",
    "latitude": -27.3706,
    "longitude": -56.8541
  },
  {
    "countryCode": "PE",
    "region": "Ayacucho",
    "iata": "AYP",
    "icao": "SPHO",
    "name": "Coronel FAP Alfredo Mendivil Duarte Airport",
    "latitude": -13.1548,
    "longitude": -74.2044
  },
  {
    "countryCode": "AU",
    "region": "Northern Territory",
    "iata": "AYQ",
    "icao": "YAYE",
    "name": "Ayers Rock Airport",
    "latitude": -25.1861,
    "longitude": 130.976
  },
  {
    "countryCode": "AU",
    "region": "Queensland",
    "iata": "AYR",
    "icao": "YAYR",
    "name": "Ayr Airport",
    "latitude": -19.5844,
    "longitude": 147.329
  },
  {
    "countryCode": "US",
    "region": "Georgia",
    "iata": "AYS",
    "icao": "KAYS",
    "name": "Waycross-Ware County Airport",
    "latitude": 31.2491,
    "longitude": -82.3955
  },
  {
    "countryCode": "TR",
    "region": "Antalya",
    "iata": "AYT",
    "icao": "LTAI",
    "name": "Antalya Airport",
    "latitude": 36.8987,
    "longitude": 30.8005
  },
  {
    "countryCode": "PG",
    "region": "Eastern Highlands",
    "iata": "AYU",
    "icao": "AYAY",
    "name": "Aiyura Airport",
    "latitude": -6.33806,
    "longitude": 145.904
  },
  {
    "countryCode": "ID",
    "region": "West Papua",
    "iata": "AYW",
    "icao": "WASA",
    "name": "Ayawasi Airport",
    "latitude": -1.1593,
    "longitude": 132.463
  },
  {
    "countryCode": "PE",
    "region": "Ayacucho",
    "iata": "AYX",
    "icao": "SPAY",
    "name": "Tnte. Gral. Gerardo Perez Pinedo Airport",
    "latitude": -10.7292,
    "longitude": -73.7667
  },
  {
    "countryCode": "LK",
    "region": "Central Province",
    "iata": "AYY",
    "icao": "",
    "name": "Arugam Bay Seaplane Base",
    "latitude": 6.86,
    "longitude": 81.8239
  },
  {
    "countryCode": "US",
    "region": "Arizona",
    "iata": "AZA",
    "icao": "KIWA",
    "name": "Phoenix-Mesa Gateway Airport",
    "latitude": 33.3078,
    "longitude": -111.655
  },
  {
    "countryCode": "PG",
    "region": "National Capital District (Port Moresby)",
    "iata": "AZB",
    "icao": "",
    "name": "Amazon Bay Airport",
    "latitude": -10.2992,
    "longitude": 149.338
  },
  {
    "countryCode": "IR",
    "region": "Yazd",
    "iata": "AZD",
    "icao": "OIYY",
    "name": "Shahid Sadooghi Airport",
    "latitude": 31.9049,
    "longitude": 54.2765
  },
  {
    "countryCode": "MX",
    "region": "Michoacan de Ocampo",
    "iata": "AZG",
    "icao": "",
    "name": "Pablo L. Sidar Airport",
    "latitude": 19.0934,
    "longitude": -102.394
  },
  {
    "countryCode": "IN",
    "region": "Uttar Pradesh",
    "iata": "AZH",
    "icao": "",
    "name": "Azamgarh Airport",
    "latitude": 26.1615,
    "longitude": 83.112
  },
  {
    "countryCode": "AE",
    "region": "Abu Zaby",
    "iata": "AZI",
    "icao": "OMAD",
    "name": "Al Bateen Executive Airport",
    "latitude": 24.4283,
    "longitude": 54.4581
  },
  {
    "countryCode": "BR",
    "region": "Mato Grosso",
    "iata": "AZL",
    "icao": "SWTU",
    "name": "Fazenda Tucunare Airport",
    "latitude": -13.4655,
    "longitude": -58.8669
  },
  {
    "countryCode": "UZ",
    "region": "Andijon",
    "iata": "AZN",
    "icao": "UTKA",
    "name": "Andizhan Airport",
    "latitude": 40.7277,
    "longitude": 72.294
  },
  {
    "countryCode": "US",
    "region": "Michigan",
    "iata": "AZO",
    "icao": "KAZO",
    "name": "Kalamazoo/Battle Creek International Airport",
    "latitude": 42.2349,
    "longitude": -85.5521
  },
  {
    "countryCode": "MX",
    "region": "Mexico",
    "iata": "AZP",
    "icao": "MMJC",
    "name": "Jorge Jimenez Cantu National Airport",
    "latitude": 19.5748,
    "longitude": -99.2888
  },
  {
    "countryCode": "DZ",
    "region": "Adrar",
    "iata": "AZR",
    "icao": "DAUA",
    "name": "Touat-Cheikh Sidi Mohamed Belkebir Airport",
    "latitude": 27.8376,
    "longitude": -0.186414
  },